$GPGGA,071647.348,4534.8520,N,12234.3591,W,1,08,1.0000,0.0,M,0.0,M,,*4A
$GPGLL,4534.8520,N,12234.3591,W,071647.348,A,,*2B
$GPGSA,A,3,25,20,23,24,16,13,11,1,4,,,,1.763,0.931,1.497*33
$GPGST,071647.348,14.0,10.9,6.3,76.5,6.1,9.8,22.2*63
$GPGSV,3,1,12,02,39,291,45,25,57,165,45,04,48,239,46,13,82,049,42*7C
$GPGSV,3,2,12,20,14,124,28,23,50,071,48,16,18,053,39,27,40,186,33*73
$GPGSV,3,3,12,10,10,299,36,08,13,195,32,07,01,001,20,06,03,352,*7F
$GPRMC,071647.348,A,4534.8520,N,12234.3591,W,30.264,0.000,140515,0.0,E,*6C
$GPVTG,78.8,T,80.9,M,30.264,N,56.000,K,A*25
$GPGGA,071648.348,4534.8633,N,12234.3532,W,1,08,1.0000,0.0,M,0.0,M,,*4D
$GPGLL,4534.8633,N,12234.3532,W,071648.348,A,,*2C
$GPGSA,A,3,25,20,23,24,16,13,11,1,4,,,,1.763,0.931,1.497*33
$GPGST,071648.348,14.0,10.9,6.3,76.5,6.1,9.8,22.2*6C
$GPGSV,3,1,12,02,39,291,45,25,57,165,45,04,48,239,46,13,82,049,42*7C
$GPGSV,3,2,12,20,14,124,28,23,50,071,48,16,18,053,39,27,40,186,33*73
$GPGSV,3,3,12,10,10,299,36,08,13,195,32,07,01,001,20,06,03,352,*7F
$GPRMC,071648.348,A,4534.8633,N,12234.3532,W,30.264,20.134,140515,0.0,E,*5F
$GPVTG,78.8,T,80.9,M,30.264,N,56.000,K,A*25
$GPGGA,071649.348,4534.8713,N,12234.3581,W,1,08,1.0000,0.0,M,0.0,M,,*47
$GPGLL,4534.8713,N,12234.3581,W,071649.348,A,,*26
$GPGSA,A,3,25,20,23,24,16,13,11,1,4,,,,1.763,0.931,1.497*33
$GPGST,071649.348,14.0,10.9,6.3,76.5,6.1,9.8,22.2*6D
$GPGSV,3,1,12,02,39,291,45,25,57,165,45,04,48,239,46,13,82,049,42*7C
$GPGSV,3,2,12,20,14,124,28,23,50,071,48,16,18,053,39,27,40,186,33*73
$GPGSV,3,3,12,10,10,299,36,08,13,195,32,07,01,001,20,06,03,352,*7F
$GPRMC,071649.348,A,4534.8713,N,12234.3581,W,30.264,336.660,140515,0.0,E,*67
$GPVTG,78.8,T,80.9,M,30.264,N,56.000,K,A*25
$GPGGA,071650.348,4534.8798,N,12234.3752,W,1,08,1.0000,0.0,M,0.0,M,,*40
$GPGLL,4534.8798,N,12234.3752,W,071650.348,A,,*21
$GPGSA,A,3,25,20,23,24,16,13,11,1,4,,,,1.763,0.931,1.497*33
$GPGST,071650.348,14.0,10.9,6.3,76.5,6.1,9.8,22.2*65
$GPGSV,3,1,12,02,39,291,45,25,57,165,45,04,48,239,46,13,82,049,42*7C
$GPGSV,3,2,12,20,14,124,28,23,50,071,48,16,18,053,39,27,40,186,33*73
$GPGSV,3,3,12,10,10,299,36,08,13,195,32,07,01,001,20,06,03,352,*7F
$GPRMC,071650.348,A,4534.8798,N,12234.3752,W,38.911,305.474,140515,0.0,E,*66
$GPVTG,78.8,T,80.9,M,38.911,N,72.000,K,A*22
$GPGGA,071651.348,4534.8849,N,12234.3888,W,1,08,1.0000,0.0,M,0.0,M,,*4A
$GPGLL,4534.8849,N,12234.3888,W,071651.348,A,,*2B
$GPGSA,A,3,25,20,23,24,16,13,11,1,4,,,,1.763,0.931,1.497*33
$GPGST,071651.348,14.0,10.9,6.3,76.5,6.1,9.8,22.2*64
$GPGSV,3,1,12,02,39,291,45,25,57,165,45,04,48,239,46,13,82,049,42*7C
$GPGSV,3,2,12,20,14,124,28,23,50,071,48,16,18,053,39,27,40,186,33*73
$GPGSV,3,3,12,10,10,299,36,08,13,195,32,07,01,001,20,06,03,352,*7F
$GPRMC,071651.348,A,4534.8849,N,12234.3888,W,38.911,298.053,140515,0.0,E,*68
$GPVTG,78.8,T,80.9,M,38.911,N,72.000,K,A*22
$GPGGA,071652.348,4534.8900,N,12234.4024,W,1,08,1.0000,0.0,M,0.0,M,,*4C
$GPGLL,4534.8900,N,12234.4024,W,071652.348,A,,*2D
$GPGSA,A,3,25,20,23,24,16,13,11,1,4,,,,1.763,0.931,1.497*33
$GPGST,071652.348,14.0,10.9,6.3,76.5,6.1,9.8,22.2*67
$GPGSV,3,1,12,02,39,291,45,25,57,165,45,04,48,239,46,13,82,049,42*7C
$GPGSV,3,2,12,20,14,124,28,23,50,071,48,16,18,053,39,27,40,186,33*73
$GPGSV,3,3,12,10,10,299,36,08,13,195,32,07,01,001,20,06,03,352,*7F
$GPRMC,071652.348,A,4534.8900,N,12234.4024,W,38.911,298.053,140515,0.0,E,*6E
$GPVTG,78.8,T,80.9,M,38.911,N,72.000,K,A*22
$GPGGA,071653.348,4534.8950,N,12234.4160,W,1,08,1.0000,0.0,M,0.0,M,,*49
$GPGLL,4534.8950,N,12234.4160,W,071653.348,A,,*28
$GPGSA,A,3,25,20,23,24,16,13,11,1,4,,,,1.763,0.931,1.497*33
$GPGST,071653.348,14.0,10.9,6.3,76.5,6.1,9.8,22.2*66
$GPGSV,3,1,12,02,39,291,45,25,57,165,45,04,48,239,46,13,82,049,42*7C
$GPGSV,3,2,12,20,14,124,28,23,50,071,48,16,18,053,39,27,40,186,33*73
$GPGSV,3,3,12,10,10,299,36,08,13,195,32,07,01,001,20,06,03,352,*7F
$GPRMC,071653.348,A,4534.8950,N,12234.4160,W,38.911,298.053,140515,0.0,E,*6B
$GPVTG,78.8,T,80.9,M,38.911,N,72.000,K,A*22
$GPGGA,071654.348,4534.9001,N,12234.4296,W,1,08,1.0000,0.0,M,0.0,M,,*48
$GPGLL,4534.9001,N,12234.4296,W,071654.348,A,,*29
$GPGSA,A,3,25,20,23,24,16,13,11,1,4,,,,1.763,0.931,1.497*33
$GPGST,071654.348,14.0,10.9,6.3,76.5,6.1,9.8,22.2*61
$GPGSV,3,1,12,02,39,291,45,25,57,165,45,04,48,239,46,13,82,049,42*7C
$GPGSV,3,2,12,20,14,124,28,23,50,071,48,16,18,053,39,27,40,186,33*73
$GPGSV,3,3,12,10,10,299,36,08,13,195,32,07,01,001,20,06,03,352,*7F
$GPRMC,071654.348,A,4534.9001,N,12234.4296,W,38.911,298.053,140515,0.0,E,*6A
$GPVTG,78.8,T,80.9,M,38.911,N,72.000,K,A*22
$GPGGA,071655.348,4534.9052,N,12234.4432,W,1,08,1.0000,0.0,M,0.0,M,,*47
$GPGLL,4534.9052,N,12234.4432,W,071655.348,A,,*26
$GPGSA,A,3,25,20,23,24,16,13,11,1,4,,,,1.763,0.931,1.497*33
$GPGST,071655.348,14.0,10.9,6.3,76.5,6.1,9.8,22.2*60
$GPGSV,3,1,12,02,39,291,45,25,57,165,45,04,48,239,46,13,82,049,42*7C
$GPGSV,3,2,12,20,14,124,28,23,50,071,48,16,18,053,39,27,40,186,33*73
$GPGSV,3,3,12,10,10,299,36,08,13,195,32,07,01,001,20,06,03,352,*7F
$GPRMC,071655.348,A,4534.9052,N,12234.4432,W,38.911,298.053,140515,0.0,E,*65
$GPVTG,78.8,T,80.9,M,38.911,N,72.000,K,A*22
$GPGGA,071656.348,4534.9103,N,12234.4568,W,1,08,1.0000,0.0,M,0.0,M,,*4F
$GPGLL,4534.9103,N,12234.4568,W,071656.348,A,,*2E
$GPGSA,A,3,25,20,23,24,16,13,11,1,4,,,,1.763,0.931,1.497*33
$GPGST,071656.348,14.0,10.9,6.3,76.5,6.1,9.8,22.2*63
$GPGSV,3,1,12,02,39,291,45,25,57,165,45,04,48,239,46,13,82,049,42*7C
$GPGSV,3,2,12,20,14,124,28,23,50,071,48,16,18,053,39,27,40,186,33*73
$GPGSV,3,3,12,10,10,299,36,08,13,195,32,07,01,001,20,06,03,352,*7F
$GPRMC,071656.348,A,4534.9103,N,12234.4568,W,38.911,298.053,140515,0.0,E,*6D
$GPVTG,78.8,T,80.9,M,38.911,N,72.000,K,A*22
$GPGGA,071657.348,4534.9153,N,12234.4704,W,1,08,1.0000,0.0,M,0.0,M,,*43
$GPGLL,4534.9153,N,12234.4704,W,071657.348,A,,*22
$GPGSA,A,3,25,20,23,24,16,13,11,1,4,,,,1.763,0.931,1.497*33
$GPGST,071657.348,14.0,10.9,6.3,76.5,6.1,9.8,22.2*62
$GPGSV,3,1,12,02,39,291,45,25,57,165,45,04,48,239,46,13,82,049,42*7C
$GPGSV,3,2,12,20,14,124,28,23,50,071,48,16,18,053,39,27,40,186,33*73
$GPGSV,3,3,12,10,10,299,36,08,13,195,32,07,01,001,20,06,03,352,*7F
$GPRMC,071657.348,A,4534.9153,N,12234.4704,W,38.911,298.053,140515,0.0,E,*61
$GPVTG,78.8,T,80.9,M,38.911,N,72.000,K,A*22
$GPGGA,071658.348,4534.9244,N,12234.4941,W,1,08,1.0000,0.0,M,0.0,M,,*46
$GPGLL,4534.9244,N,12234.4941,W,071658.348,A,,*27
$GPGSA,A,3,25,20,23,24,16,13,11,1,4,,,,1.763,0.931,1.497*33
$GPGST,071658.348,14.0,10.9,6.3,76.5,6.1,9.8,22.2*6D
$GPGSV,3,1,12,02,39,291,45,25,57,165,45,04,48,239,46,13,82,049,42*7C
$GPGSV,3,2,12,20,14,124,28,23,50,071,48,16,18,053,39,27,40,186,33*73
$GPGSV,3,3,12,10,10,299,36,08,13,195,32,07,01,001,20,06,03,352,*7F
$GPRMC,071658.348,A,4534.9244,N,12234.4941,W,38.911,298.675,140515,0.0,E,*66
$GPVTG,78.8,T,80.9,M,38.911,N,72.000,K,A*22
$GPGGA,071659.348,4534.9297,N,12234.5076,W,1,08,1.0000,0.0,M,0.0,M,,*45
$GPGLL,4534.9297,N,12234.5076,W,071659.348,A,,*24
$GPGSA,A,3,25,20,23,24,16,13,11,1,4,,,,1.763,0.931,1.497*33
$GPGST,071659.348,14.0,10.9,6.3,76.5,6.1,9.8,22.2*6C
$GPGSV,3,1,12,02,39,291,45,25,57,165,45,04,48,239,46,13,82,049,42*7C
$GPGSV,3,2,12,20,14,124,28,23,50,071,48,16,18,053,39,27,40,186,33*73
$GPGSV,3,3,12,10,10,299,36,08,13,195,32,07,01,001,20,06,03,352,*7F
$GPRMC,071659.348,A,4534.9297,N,12234.5076,W,38.911,299.145,140515,0.0,E,*60
$GPVTG,78.8,T,80.9,M,38.911,N,72.000,K,A*22
$GPGGA,071700.348,4534.9349,N,12234.5210,W,1,08,1.0000,0.0,M,0.0,M,,*48
$GPGLL,4534.9349,N,12234.5210,W,071700.348,A,,*29
$GPGSA,A,3,25,20,23,24,16,13,11,1,4,,,,1.763,0.931,1.497*33
$GPGST,071700.348,14.0,10.9,6.3,76.5,6.1,9.8,22.2*61
$GPGSV,3,1,12,02,39,291,45,25,57,165,45,04,48,239,46,13,82,049,42*7C
$GPGSV,3,2,12,20,14,124,28,23,50,071,48,16,18,053,39,27,40,186,33*73
$GPGSV,3,3,12,10,10,299,36,08,13,195,32,07,01,001,20,06,03,352,*7F
$GPRMC,071700.348,A,4534.9349,N,12234.5210,W,38.911,299.178,140515,0.0,E,*63
$GPVTG,78.8,T,80.9,M,38.911,N,72.000,K,A*22
$GPGGA,071701.348,4534.9402,N,12234.5345,W,1,08,1.0000,0.0,M,0.0,M,,*40
$GPGLL,4534.9402,N,12234.5345,W,071701.348,A,,*21
$GPGSA,A,3,25,20,23,24,16,13,11,1,4,,,,1.763,0.931,1.497*33
$GPGST,071701.348,14.0,10.9,6.3,76.5,6.1,9.8,22.2*60
$GPGSV,3,1,12,02,39,291,45,25,57,165,45,04,48,239,46,13,82,049,42*7C
$GPGSV,3,2,12,20,14,124,28,23,50,071,48,16,18,053,39,27,40,186,33*73
$GPGSV,3,3,12,10,10,299,36,08,13,195,32,07,01,001,20,06,03,352,*7F
$GPRMC,071701.348,A,4534.9402,N,12234.5345,W,38.911,299.178,140515,0.0,E,*6B
$GPVTG,78.8,T,80.9,M,38.911,N,72.000,K,A*22
$GPGGA,071702.348,4534.9454,N,12234.5480,W,1,08,1.0000,0.0,M,0.0,M,,*4E
$GPGLL,4534.9454,N,12234.5480,W,071702.348,A,,*2F
$GPGSA,A,3,25,20,23,24,16,13,11,1,4,,,,1.763,0.931,1.497*33
$GPGST,071702.348,14.0,10.9,6.3,76.5,6.1,9.8,22.2*63
$GPGSV,3,1,12,02,39,291,45,25,57,165,45,04,48,239,46,13,82,049,42*7C
$GPGSV,3,2,12,20,14,124,28,23,50,071,48,16,18,053,39,27,40,186,33*73
$GPGSV,3,3,12,10,10,299,36,08,13,195,32,07,01,001,20,06,03,352,*7F
$GPRMC,071702.348,A,4534.9454,N,12234.5480,W,38.911,299.178,140515,0.0,E,*65
$GPVTG,78.8,T,80.9,M,38.911,N,72.000,K,A*22
$GPGGA,071703.348,4534.9507,N,12234.5614,W,1,08,1.0000,0.0,M,0.0,M,,*47
$GPGLL,4534.9507,N,12234.5614,W,071703.348,A,,*26
$GPGSA,A,3,25,20,23,24,16,13,11,1,4,,,,1.763,0.931,1.497*33
$GPGST,071703.348,14.0,10.9,6.3,76.5,6.1,9.8,22.2*62
$GPGSV,3,1,12,02,39,291,45,25,57,165,45,04,48,239,46,13,82,049,42*7C
$GPGSV,3,2,12,20,14,124,28,23,50,071,48,16,18,053,39,27,40,186,33*73
$GPGSV,3,3,12,10,10,299,36,08,13,195,32,07,01,001,20,06,03,352,*7F
$GPRMC,071703.348,A,4534.9507,N,12234.5614,W,38.911,299.178,140515,0.0,E,*6C
$GPVTG,78.8,T,80.9,M,38.911,N,72.000,K,A*22
$GPGGA,071704.348,4534.9560,N,12234.5749,W,1,08,1.0000,0.0,M,0.0,M,,*48
$GPGLL,4534.9560,N,12234.5749,W,071704.348,A,,*29
$GPGSA,A,3,25,20,23,24,16,13,11,1,4,,,,1.763,0.931,1.497*33
$GPGST,071704.348,14.0,10.9,6.3,76.5,6.1,9.8,22.2*65
$GPGSV,3,1,12,02,39,291,45,25,57,165,45,04,48,239,46,13,82,049,42*7C
$GPGSV,3,2,12,20,14,124,28,23,50,071,48,16,18,053,39,27,40,186,33*73
$GPGSV,3,3,12,10,10,299,36,08,13,195,32,07,01,001,20,06,03,352,*7F
$GPRMC,071704.348,A,4534.9560,N,12234.5749,W,38.911,299.178,140515,0.0,E,*63
$GPVTG,78.8,T,80.9,M,38.911,N,72.000,K,A*22
$GPGGA,071705.348,4534.9612,N,12234.5884,W,1,08,1.0000,0.0,M,0.0,M,,*41
$GPGLL,4534.9612,N,12234.5884,W,071705.348,A,,*20
$GPGSA,A,3,25,20,23,24,16,13,11,1,4,,,,1.763,0.931,1.497*33
$GPGST,071705.348,14.0,10.9,6.3,76.5,6.1,9.8,22.2*64
$GPGSV,3,1,12,02,39,291,45,25,57,165,45,04,48,239,46,13,82,049,42*7C
$GPGSV,3,2,12,20,14,124,28,23,50,071,48,16,18,053,39,27,40,186,33*73
$GPGSV,3,3,12,10,10,299,36,08,13,195,32,07,01,001,20,06,03,352,*7F
$GPRMC,071705.348,A,4534.9612,N,12234.5884,W,38.911,299.178,140515,0.0,E,*6A
$GPVTG,78.8,T,80.9,M,38.911,N,72.000,K,A*22
$GPGGA,071706.348,4534.9665,N,12234.6018,W,1,08,1.0000,0.0,M,0.0,M,,*4C
$GPGLL,4534.9665,N,12234.6018,W,071706.348,A,,*2D
$GPGSA,A,3,25,20,23,24,16,13,11,1,4,,,,1.763,0.931,1.497*33
$GPGST,071706.348,14.0,10.9,6.3,76.5,6.1,9.8,22.2*67
$GPGSV,3,1,12,02,39,291,45,25,57,165,45,04,48,239,46,13,82,049,42*7C
$GPGSV,3,2,12,20,14,124,28,23,50,071,48,16,18,053,39,27,40,186,33*73
$GPGSV,3,3,12,10,10,299,36,08,13,195,32,07,01,001,20,06,03,352,*7F
$GPRMC,071706.348,A,4534.9665,N,12234.6018,W,38.911,299.178,140515,0.0,E,*67
$GPVTG,78.8,T,80.9,M,38.911,N,72.000,K,A*22
$GPGGA,071707.348,4534.9717,N,12234.6153,W,1,08,1.0000,0.0,M,0.0,M,,*47
$GPGLL,4534.9717,N,12234.6153,W,071707.348,A,,*26
$GPGSA,A,3,25,20,23,24,16,13,11,1,4,,,,1.763,0.931,1.497*33
$GPGST,071707.348,14.0,10.9,6.3,76.5,6.1,9.8,22.2*66
$GPGSV,3,1,12,02,39,291,45,25,57,165,45,04,48,239,46,13,82,049,42*7C
$GPGSV,3,2,12,20,14,124,28,23,50,071,48,16,18,053,39,27,40,186,33*73
$GPGSV,3,3,12,10,10,299,36,08,13,195,32,07,01,001,20,06,03,352,*7F
$GPRMC,071707.348,A,4534.9717,N,12234.6153,W,38.911,299.179,140515,0.0,E,*6D
$GPVTG,78.8,T,80.9,M,38.911,N,72.000,K,A*22
$GPGGA,071708.348,4534.9770,N,12234.6287,W,1,08,1.0000,0.0,M,0.0,M,,*43
$GPGLL,4534.9770,N,12234.6287,W,071708.348,A,,*22
$GPGSA,A,3,25,20,23,24,16,13,11,1,4,,,,1.763,0.931,1.497*33
$GPGST,071708.348,14.0,10.9,6.3,76.5,6.1,9.8,22.2*69
$GPGSV,3,1,12,02,39,291,45,25,57,165,45,04,48,239,46,13,82,049,42*7C
$GPGSV,3,2,12,20,14,124,28,23,50,071,48,16,18,053,39,27,40,186,33*73
$GPGSV,3,3,12,10,10,299,36,08,13,195,32,07,01,001,20,06,03,352,*7F
$GPRMC,071708.348,A,4534.9770,N,12234.6287,W,38.911,299.239,140515,0.0,E,*6E
$GPVTG,78.8,T,80.9,M,38.911,N,72.000,K,A*22
$GPGGA,071709.348,4534.9823,N,12234.6422,W,1,08,1.0000,0.0,M,0.0,M,,*42
$GPGLL,4534.9823,N,12234.6422,W,071709.348,A,,*23
$GPGSA,A,3,25,20,23,24,16,13,11,1,4,,,,1.763,0.931,1.497*33
$GPGST,071709.348,14.0,10.9,6.3,76.5,6.1,9.8,22.2*68
$GPGSV,3,1,12,02,39,291,45,25,57,165,45,04,48,239,46,13,82,049,42*7C
$GPGSV,3,2,12,20,14,124,28,23,50,071,48,16,18,053,39,27,40,186,33*73
$GPGSV,3,3,12,10,10,299,36,08,13,195,32,07,01,001,20,06,03,352,*7F
$GPRMC,071709.348,A,4534.9823,N,12234.6422,W,38.911,299.263,140515,0.0,E,*60
$GPVTG,78.8,T,80.9,M,38.911,N,72.000,K,A*22
$GPGGA,071710.348,4534.9876,N,12234.6556,W,1,08,1.0000,0.0,M,0.0,M,,*48
$GPGLL,4534.9876,N,12234.6556,W,071710.348,A,,*29
$GPGSA,A,3,25,20,23,24,16,13,11,1,4,,,,1.763,0.931,1.497*33
$GPGST,071710.348,14.0,10.9,6.3,76.5,6.1,9.8,22.2*60
$GPGSV,3,1,12,02,39,291,45,25,57,165,45,04,48,239,46,13,82,049,42*7C
$GPGSV,3,2,12,20,14,124,28,23,50,071,48,16,18,053,39,27,40,186,33*73
$GPGSV,3,3,12,10,10,299,36,08,13,195,32,07,01,001,20,06,03,352,*7F
$GPRMC,071710.348,A,4534.9876,N,12234.6556,W,38.911,299.399,140515,0.0,E,*6E
$GPVTG,78.8,T,80.9,M,38.911,N,72.000,K,A*22
$GPGGA,071711.348,4534.9929,N,12234.6690,W,1,08,1.0000,0.0,M,0.0,M,,*4B
$GPGLL,4534.9929,N,12234.6690,W,071711.348,A,,*2A
$GPGSA,A,3,25,20,23,24,16,13,11,1,4,,,,1.763,0.931,1.497*33
$GPGST,071711.348,14.0,10.9,6.3,76.5,6.1,9.8,22.2*61
$GPGSV,3,1,12,02,39,291,45,25,57,165,45,04,48,239,46,13,82,049,42*7C
$GPGSV,3,2,12,20,14,124,28,23,50,071,48,16,18,053,39,27,40,186,33*73
$GPGSV,3,3,12,10,10,299,36,08,13,195,32,07,01,001,20,06,03,352,*7F
$GPRMC,071711.348,A,4534.9929,N,12234.6690,W,38.911,299.749,140515,0.0,E,*64
$GPVTG,78.8,T,80.9,M,38.911,N,72.000,K,A*22
$GPGGA,071712.348,4534.9983,N,12234.6824,W,1,08,1.0000,0.0,M,0.0,M,,*49
$GPGLL,4534.9983,N,12234.6824,W,071712.348,A,,*28
$GPGSA,A,3,25,20,23,24,16,13,11,1,4,,,,1.763,0.931,1.497*33
$GPGST,071712.348,14.0,10.9,6.3,76.5,6.1,9.8,22.2*62
$GPGSV,3,1,12,02,39,291,45,25,57,165,45,04,48,239,46,13,82,049,42*7C
$GPGSV,3,2,12,20,14,124,28,23,50,071,48,16,18,053,39,27,40,186,33*73
$GPGSV,3,3,12,10,10,299,36,08,13,195,32,07,01,001,20,06,03,352,*7F
$GPRMC,071712.348,A,4534.9983,N,12234.6824,W,38.911,299.749,140515,0.0,E,*66
$GPVTG,78.8,T,80.9,M,38.911,N,72.000,K,A*22
$GPGGA,071713.348,4535.0037,N,12234.6957,W,1,08,1.0000,0.0,M,0.0,M,,*43
$GPGLL,4535.0037,N,12234.6957,W,071713.348,A,,*22
$GPGSA,A,3,25,20,23,24,16,13,11,1,4,,,,1.763,0.931,1.497*33
$GPGST,071713.348,14.0,10.9,6.3,76.5,6.1,9.8,22.2*63
$GPGSV,3,1,12,02,39,291,45,25,57,165,45,04,48,239,46,13,82,049,42*7C
$GPGSV,3,2,12,20,14,124,28,23,50,071,48,16,18,053,39,27,40,186,33*73
$GPGSV,3,3,12,10,10,299,36,08,13,195,32,07,01,001,20,06,03,352,*7F
$GPRMC,071713.348,A,4535.0037,N,12234.6957,W,38.911,300.104,140515,0.0,E,*62
$GPVTG,78.8,T,80.9,M,38.911,N,72.000,K,A*22
$GPGGA,071714.348,4535.0092,N,12234.7091,W,1,08,1.0000,0.0,M,0.0,M,,*49
$GPGLL,4535.0092,N,12234.7091,W,071714.348,A,,*28
$GPGSA,A,3,25,20,23,24,16,13,11,1,4,,,,1.763,0.931,1.497*33
$GPGST,071714.348,14.0,10.9,6.3,76.5,6.1,9.8,22.2*64
$GPGSV,3,1,12,02,39,291,45,25,57,165,45,04,48,239,46,13,82,049,42*7C
$GPGSV,3,2,12,20,14,124,28,23,50,071,48,16,18,053,39,27,40,186,33*73
$GPGSV,3,3,12,10,10,299,36,08,13,195,32,07,01,001,20,06,03,352,*7F
$GPRMC,071714.348,A,4535.0092,N,12234.7091,W,38.911,300.307,140515,0.0,E,*69
$GPVTG,78.8,T,80.9,M,38.911,N,72.000,K,A*22
$GPGGA,071715.348,4535.0159,N,12234.7261,W,1,08,1.0000,0.0,M,0.0,M,,*43
$GPGLL,4535.0159,N,12234.7261,W,071715.348,A,,*22
$GPGSA,A,3,25,20,23,24,16,13,11,1,4,,,,1.763,0.931,1.497*33
$GPGST,071715.348,14.0,10.9,6.3,76.5,6.1,9.8,22.2*65
$GPGSV,3,1,12,02,39,291,45,25,57,165,45,04,48,239,46,13,82,049,42*7C
$GPGSV,3,2,12,20,14,124,28,23,50,071,48,16,18,053,39,27,40,186,33*73
$GPGSV,3,3,12,10,10,299,36,08,13,195,32,07,01,001,20,06,03,352,*7F
$GPRMC,071715.348,A,4535.0159,N,12234.7261,W,30.264,299.565,140515,0.0,E,*61
$GPVTG,78.8,T,80.9,M,30.264,N,56.000,K,A*25
$GPGGA,071716.348,4535.0200,N,12234.7366,W,1,08,1.0000,0.0,M,0.0,M,,*49
$GPGLL,4535.0200,N,12234.7366,W,071716.348,A,,*28
$GPGSA,A,3,25,20,23,24,16,13,11,1,4,,,,1.763,0.931,1.497*33
$GPGST,071716.348,14.0,10.9,6.3,76.5,6.1,9.8,22.2*66
$GPGSV,3,1,12,02,39,291,45,25,57,165,45,04,48,239,46,13,82,049,42*7C
$GPGSV,3,2,12,20,14,124,28,23,50,071,48,16,18,053,39,27,40,186,33*73
$GPGSV,3,3,12,10,10,299,36,08,13,195,32,07,01,001,20,06,03,352,*7F
$GPRMC,071716.348,A,4535.0200,N,12234.7366,W,30.264,299.096,140515,0.0,E,*62
$GPVTG,78.8,T,80.9,M,30.264,N,56.000,K,A*25
$GPGGA,071717.348,4535.0241,N,12234.7470,W,1,08,1.0000,0.0,M,0.0,M,,*4D
$GPGLL,4535.0241,N,12234.7470,W,071717.348,A,,*2C
$GPGSA,A,3,25,20,23,24,16,13,11,1,4,,,,1.763,0.931,1.497*33
$GPGST,071717.348,14.0,10.9,6.3,76.5,6.1,9.8,22.2*67
$GPGSV,3,1,12,02,39,291,45,25,57,165,45,04,48,239,46,13,82,049,42*7C
$GPGSV,3,2,12,20,14,124,28,23,50,071,48,16,18,053,39,27,40,186,33*73
$GPGSV,3,3,12,10,10,299,36,08,13,195,32,07,01,001,20,06,03,352,*7F
$GPRMC,071717.348,A,4535.0241,N,12234.7470,W,30.264,299.096,140515,0.0,E,*66
$GPVTG,78.8,T,80.9,M,30.264,N,56.000,K,A*25
$GPGGA,071718.348,4535.0282,N,12234.7575,W,1,08,1.0000,0.0,M,0.0,M,,*49
$GPGLL,4535.0282,N,12234.7575,W,071718.348,A,,*28
$GPGSA,A,3,25,20,23,24,16,13,11,1,4,,,,1.763,0.931,1.497*33
$GPGST,071718.348,14.0,10.9,6.3,76.5,6.1,9.8,22.2*68
$GPGSV,3,1,12,02,39,291,45,25,57,165,45,04,48,239,46,13,82,049,42*7C
$GPGSV,3,2,12,20,14,124,28,23,50,071,48,16,18,053,39,27,40,186,33*73
$GPGSV,3,3,12,10,10,299,36,08,13,195,32,07,01,001,20,06,03,352,*7F
$GPRMC,071718.348,A,4535.0282,N,12234.7575,W,30.264,299.096,140515,0.0,E,*62
$GPVTG,78.8,T,80.9,M,30.264,N,56.000,K,A*25
$GPGGA,071719.348,4535.0322,N,12234.7680,W,1,08,1.0000,0.0,M,0.0,M,,*4A
$GPGLL,4535.0322,N,12234.7680,W,071719.348,A,,*2B
$GPGSA,A,3,25,20,23,24,16,13,11,1,4,,,,1.763,0.931,1.497*33
$GPGST,071719.348,14.0,10.9,6.3,76.5,6.1,9.8,22.2*69
$GPGSV,3,1,12,02,39,291,45,25,57,165,45,04,48,239,46,13,82,049,42*7C
$GPGSV,3,2,12,20,14,124,28,23,50,071,48,16,18,053,39,27,40,186,33*73
$GPGSV,3,3,12,10,10,299,36,08,13,195,32,07,01,001,20,06,03,352,*7F
$GPRMC,071719.348,A,4535.0322,N,12234.7680,W,30.264,299.096,140515,0.0,E,*61
$GPVTG,78.8,T,80.9,M,30.264,N,56.000,K,A*25
$GPGGA,071720.348,4535.0396,N,12234.7873,W,1,08,1.0000,0.0,M,0.0,M,,*4D
$GPGLL,4535.0396,N,12234.7873,W,071720.348,A,,*2C
$GPGSA,A,3,25,20,23,24,16,13,11,1,4,,,,1.763,0.931,1.497*33
$GPGST,071720.348,14.0,10.9,6.3,76.5,6.1,9.8,22.2*63
$GPGSV,3,1,12,02,39,291,45,25,57,165,45,04,48,239,46,13,82,049,42*7C
$GPGSV,3,2,12,20,14,124,28,23,50,071,48,16,18,053,39,27,40,186,33*73
$GPGSV,3,3,12,10,10,299,36,08,13,195,32,07,01,001,20,06,03,352,*7F
$GPRMC,071720.348,A,4535.0396,N,12234.7873,W,30.264,298.599,140515,0.0,E,*6D
$GPVTG,78.8,T,80.9,M,30.264,N,56.000,K,A*25
$GPGGA,071721.348,4535.0436,N,12234.7979,W,1,08,1.0000,0.0,M,0.0,M,,*4A
$GPGLL,4535.0436,N,12234.7979,W,071721.348,A,,*2B
$GPGSA,A,3,25,20,23,24,16,13,11,1,4,,,,1.763,0.931,1.497*33
$GPGST,071721.348,14.0,10.9,6.3,76.5,6.1,9.8,22.2*62
$GPGSV,3,1,12,02,39,291,45,25,57,165,45,04,48,239,46,13,82,049,42*7C
$GPGSV,3,2,12,20,14,124,28,23,50,071,48,16,18,053,39,27,40,186,33*73
$GPGSV,3,3,12,10,10,299,36,08,13,195,32,07,01,001,20,06,03,352,*7F
$GPRMC,071721.348,A,4535.0436,N,12234.7979,W,30.264,298.183,140515,0.0,E,*65
$GPVTG,78.8,T,80.9,M,30.264,N,56.000,K,A*25
$GPGGA,071722.348,4535.0476,N,12234.8085,W,1,08,1.0000,0.0,M,0.0,M,,*48
$GPGLL,4535.0476,N,12234.8085,W,071722.348,A,,*29
$GPGSA,A,3,25,20,23,24,16,13,11,1,4,,,,1.763,0.931,1.497*33
$GPGST,071722.348,14.0,10.9,6.3,76.5,6.1,9.8,22.2*61
$GPGSV,3,1,12,02,39,291,45,25,57,165,45,04,48,239,46,13,82,049,42*7C
$GPGSV,3,2,12,20,14,124,28,23,50,071,48,16,18,053,39,27,40,186,33*73
$GPGSV,3,3,12,10,10,299,36,08,13,195,32,07,01,001,20,06,03,352,*7F
$GPRMC,071722.348,A,4535.0476,N,12234.8085,W,30.264,298.183,140515,0.0,E,*67
$GPVTG,78.8,T,80.9,M,30.264,N,56.000,K,A*25
$GPGGA,071723.348,4535.0553,N,12234.8284,W,1,08,1.0000,0.0,M,0.0,M,,*4C
$GPGLL,4535.0553,N,12234.8284,W,071723.348,A,,*2D
$GPGSA,A,3,25,20,23,24,16,13,11,1,4,,,,1.763,0.931,1.497*33
$GPGST,071723.348,14.0,10.9,6.3,76.5,6.1,9.8,22.2*60
$GPGSV,3,1,12,02,39,291,45,25,57,165,45,04,48,239,46,13,82,049,42*7C
$GPGSV,3,2,12,20,14,124,28,23,50,071,48,16,18,053,39,27,40,186,33*73
$GPGSV,3,3,12,10,10,299,36,08,13,195,32,07,01,001,20,06,03,352,*7F
$GPRMC,071723.348,A,4535.0553,N,12234.8284,W,30.264,299.047,140515,0.0,E,*6B
$GPVTG,78.8,T,80.9,M,30.264,N,56.000,K,A*25
$GPGGA,071724.348,4535.0595,N,12234.8388,W,1,08,1.0000,0.0,M,0.0,M,,*4C
$GPGLL,4535.0595,N,12234.8388,W,071724.348,A,,*2D
$GPGSA,A,3,25,20,23,24,16,13,11,1,4,,,,1.763,0.931,1.497*33
$GPGST,071724.348,14.0,10.9,6.3,76.5,6.1,9.8,22.2*67
$GPGSV,3,1,12,02,39,291,45,25,57,165,45,04,48,239,46,13,82,049,42*7C
$GPGSV,3,2,12,20,14,124,28,23,50,071,48,16,18,053,39,27,40,186,33*73
$GPGSV,3,3,12,10,10,299,36,08,13,195,32,07,01,001,20,06,03,352,*7F
$GPRMC,071724.348,A,4535.0595,N,12234.8388,W,30.264,299.822,140515,0.0,E,*60
$GPVTG,78.8,T,80.9,M,30.264,N,56.000,K,A*25
$GPGGA,071725.348,4535.0636,N,12234.8492,W,1,08,1.0000,0.0,M,0.0,M,,*4B
$GPGLL,4535.0636,N,12234.8492,W,071725.348,A,,*2A
$GPGSA,A,3,25,20,23,24,16,13,11,1,4,,,,1.763,0.931,1.497*33
$GPGST,071725.348,14.0,10.9,6.3,76.5,6.1,9.8,22.2*66
$GPGSV,3,1,12,02,39,291,45,25,57,165,45,04,48,239,46,13,82,049,42*7C
$GPGSV,3,2,12,20,14,124,28,23,50,071,48,16,18,053,39,27,40,186,33*73
$GPGSV,3,3,12,10,10,299,36,08,13,195,32,07,01,001,20,06,03,352,*7F
$GPRMC,071725.348,A,4535.0636,N,12234.8492,W,30.264,299.822,140515,0.0,E,*67
$GPVTG,78.8,T,80.9,M,30.264,N,56.000,K,A*25
$GPGGA,071726.348,4535.0678,N,12234.8596,W,1,08,1.0000,0.0,M,0.0,M,,*47
$GPGLL,4535.0678,N,12234.8596,W,071726.348,A,,*26
$GPGSA,A,3,25,20,23,24,16,13,11,1,4,,,,1.763,0.931,1.497*33
$GPGST,071726.348,14.0,10.9,6.3,76.5,6.1,9.8,22.2*65
$GPGSV,3,1,12,02,39,291,45,25,57,165,45,04,48,239,46,13,82,049,42*7C
$GPGSV,3,2,12,20,14,124,28,23,50,071,48,16,18,053,39,27,40,186,33*73
$GPGSV,3,3,12,10,10,299,36,08,13,195,32,07,01,001,20,06,03,352,*7F
$GPRMC,071726.348,A,4535.0678,N,12234.8596,W,30.264,299.822,140515,0.0,E,*6B
$GPVTG,78.8,T,80.9,M,30.264,N,56.000,K,A*25
$GPGGA,071727.348,4535.0720,N,12234.8700,W,1,08,1.0000,0.0,M,0.0,M,,*47
$GPGLL,4535.0720,N,12234.8700,W,071727.348,A,,*26
$GPGSA,A,3,25,20,23,24,16,13,11,1,4,,,,1.763,0.931,1.497*33
$GPGST,071727.348,14.0,10.9,6.3,76.5,6.1,9.8,22.2*64
$GPGSV,3,1,12,02,39,291,45,25,57,165,45,04,48,239,46,13,82,049,42*7C
$GPGSV,3,2,12,20,14,124,28,23,50,071,48,16,18,053,39,27,40,186,33*73
$GPGSV,3,3,12,10,10,299,36,08,13,195,32,07,01,001,20,06,03,352,*7F
$GPRMC,071727.348,A,4535.0720,N,12234.8700,W,30.264,299.822,140515,0.0,E,*6B
$GPVTG,78.8,T,80.9,M,30.264,N,56.000,K,A*25
$GPGGA,071728.348,4535.0762,N,12234.8804,W,1,08,1.0000,0.0,M,0.0,M,,*45
$GPGLL,4535.0762,N,12234.8804,W,071728.348,A,,*24
$GPGSA,A,3,25,20,23,24,16,13,11,1,4,,,,1.763,0.931,1.497*33
$GPGST,071728.348,14.0,10.9,6.3,76.5,6.1,9.8,22.2*6B
$GPGSV,3,1,12,02,39,291,45,25,57,165,45,04,48,239,46,13,82,049,42*7C
$GPGSV,3,2,12,20,14,124,28,23,50,071,48,16,18,053,39,27,40,186,33*73
$GPGSV,3,3,12,10,10,299,36,08,13,195,32,07,01,001,20,06,03,352,*7F
$GPRMC,071728.348,A,4535.0762,N,12234.8804,W,30.264,299.822,140515,0.0,E,*69
$GPVTG,78.8,T,80.9,M,30.264,N,56.000,K,A*25
$GPGGA,071729.348,4535.0803,N,12234.8908,W,1,08,1.0000,0.0,M,0.0,M,,*41
$GPGLL,4535.0803,N,12234.8908,W,071729.348,A,,*20
$GPGSA,A,3,25,20,23,24,16,13,11,1,4,,,,1.763,0.931,1.497*33
$GPGST,071729.348,14.0,10.9,6.3,76.5,6.1,9.8,22.2*6A
$GPGSV,3,1,12,02,39,291,45,25,57,165,45,04,48,239,46,13,82,049,42*7C
$GPGSV,3,2,12,20,14,124,28,23,50,071,48,16,18,053,39,27,40,186,33*73
$GPGSV,3,3,12,10,10,299,36,08,13,195,32,07,01,001,20,06,03,352,*7F
$GPRMC,071729.348,A,4535.0803,N,12234.8908,W,30.264,299.822,140515,0.0,E,*6D
$GPVTG,78.8,T,80.9,M,30.264,N,56.000,K,A*25
$GPGGA,071730.348,4535.0845,N,12234.9012,W,1,08,1.0000,0.0,M,0.0,M,,*48
$GPGLL,4535.0845,N,12234.9012,W,071730.348,A,,*29
$GPGSA,A,3,25,20,23,24,16,13,11,1,4,,,,1.763,0.931,1.497*33
$GPGST,071730.348,14.0,10.9,6.3,76.5,6.1,9.8,22.2*62
$GPGSV,3,1,12,02,39,291,45,25,57,165,45,04,48,239,46,13,82,049,42*7C
$GPGSV,3,2,12,20,14,124,28,23,50,071,48,16,18,053,39,27,40,186,33*73
$GPGSV,3,3,12,10,10,299,36,08,13,195,32,07,01,001,20,06,03,352,*7F
$GPRMC,071730.348,A,4535.0845,N,12234.9012,W,30.264,299.822,140515,0.0,E,*64
$GPVTG,78.8,T,80.9,M,30.264,N,56.000,K,A*25
$GPGGA,071731.348,4535.0887,N,12234.9116,W,1,08,1.0000,0.0,M,0.0,M,,*42
$GPGLL,4535.0887,N,12234.9116,W,071731.348,A,,*23
$GPGSA,A,3,25,20,23,24,16,13,11,1,4,,,,1.763,0.931,1.497*33
$GPGST,071731.348,14.0,10.9,6.3,76.5,6.1,9.8,22.2*63
$GPGSV,3,1,12,02,39,291,45,25,57,165,45,04,48,239,46,13,82,049,42*7C
$GPGSV,3,2,12,20,14,124,28,23,50,071,48,16,18,053,39,27,40,186,33*73
$GPGSV,3,3,12,10,10,299,36,08,13,195,32,07,01,001,20,06,03,352,*7F
$GPRMC,071731.348,A,4535.0887,N,12234.9116,W,30.264,299.822,140515,0.0,E,*6E
$GPVTG,78.8,T,80.9,M,30.264,N,56.000,K,A*25
$GPGGA,071732.348,4535.0928,N,12234.9220,W,1,08,1.0000,0.0,M,0.0,M,,*43
$GPGLL,4535.0928,N,12234.9220,W,071732.348,A,,*22
$GPGSA,A,3,25,20,23,24,16,13,11,1,4,,,,1.763,0.931,1.497*33
$GPGST,071732.348,14.0,10.9,6.3,76.5,6.1,9.8,22.2*60
$GPGSV,3,1,12,02,39,291,45,25,57,165,45,04,48,239,46,13,82,049,42*7C
$GPGSV,3,2,12,20,14,124,28,23,50,071,48,16,18,053,39,27,40,186,33*73
$GPGSV,3,3,12,10,10,299,36,08,13,195,32,07,01,001,20,06,03,352,*7F
$GPRMC,071732.348,A,4535.0928,N,12234.9220,W,30.264,299.822,140515,0.0,E,*6F
$GPVTG,78.8,T,80.9,M,30.264,N,56.000,K,A*25
$GPGGA,071733.348,4535.0999,N,12234.9390,W,1,08,1.0000,0.0,M,0.0,M,,*42
$GPGLL,4535.0999,N,12234.9390,W,071733.348,A,,*23
$GPGSA,A,3,25,20,23,24,16,13,11,1,4,,,,1.763,0.931,1.497*33
$GPGST,071733.348,14.0,10.9,6.3,76.5,6.1,9.8,22.2*61
$GPGSV,3,1,12,02,39,291,45,25,57,165,45,04,48,239,46,13,82,049,42*7C
$GPGSV,3,2,12,20,14,124,28,23,50,071,48,16,18,053,39,27,40,186,33*73
$GPGSV,3,3,12,10,10,299,36,08,13,195,32,07,01,001,20,06,03,352,*7F
$GPRMC,071733.348,A,4535.0999,N,12234.9390,W,30.264,300.560,140515,0.0,E,*64
$GPVTG,78.8,T,80.9,M,30.264,N,56.000,K,A*25
$GPGGA,071734.348,4535.1048,N,12234.9513,W,1,08,1.0000,0.0,M,0.0,M,,*4C
$GPGLL,4535.1048,N,12234.9513,W,071734.348,A,,*2D
$GPGSA,A,3,25,20,23,24,16,13,11,1,4,,,,1.763,0.931,1.497*33
$GPGST,071734.348,14.0,10.9,6.3,76.5,6.1,9.8,22.2*66
$GPGSV,3,1,12,02,39,291,45,25,57,165,45,04,48,239,46,13,82,049,42*7C
$GPGSV,3,2,12,20,14,124,28,23,50,071,48,16,18,053,39,27,40,186,33*73
$GPGSV,3,3,12,10,10,299,36,08,13,195,32,07,01,001,20,06,03,352,*7F
$GPRMC,071734.348,A,4535.1048,N,12234.9513,W,30.264,299.822,140515,0.0,E,*60
$GPVTG,78.8,T,80.9,M,30.264,N,56.000,K,A*25
$GPGGA,071735.348,4535.1090,N,12234.9618,W,1,08,1.0000,0.0,M,0.0,M,,*40
$GPGLL,4535.1090,N,12234.9618,W,071735.348,A,,*21
$GPGSA,A,3,25,20,23,24,16,13,11,1,4,,,,1.763,0.931,1.497*33
$GPGST,071735.348,14.0,10.9,6.3,76.5,6.1,9.8,22.2*67
$GPGSV,3,1,12,02,39,291,45,25,57,165,45,04,48,239,46,13,82,049,42*7C
$GPGSV,3,2,12,20,14,124,28,23,50,071,48,16,18,053,39,27,40,186,33*73
$GPGSV,3,3,12,10,10,299,36,08,13,195,32,07,01,001,20,06,03,352,*7F
$GPRMC,071735.348,A,4535.1090,N,12234.9618,W,30.264,299.592,140515,0.0,E,*6A
$GPVTG,78.8,T,80.9,M,30.264,N,56.000,K,A*25
$GPGGA,071736.348,4535.1131,N,12234.9722,W,1,08,1.0000,0.0,M,0.0,M,,*41
$GPGLL,4535.1131,N,12234.9722,W,071736.348,A,,*20
$GPGSA,A,3,25,20,23,24,16,13,11,1,4,,,,1.763,0.931,1.497*33
$GPGST,071736.348,14.0,10.9,6.3,76.5,6.1,9.8,22.2*64
$GPGSV,3,1,12,02,39,291,45,25,57,165,45,04,48,239,46,13,82,049,42*7C
$GPGSV,3,2,12,20,14,124,28,23,50,071,48,16,18,053,39,27,40,186,33*73
$GPGSV,3,3,12,10,10,299,36,08,13,195,32,07,01,001,20,06,03,352,*7F
$GPRMC,071736.348,A,4535.1131,N,12234.9722,W,30.264,299.592,140515,0.0,E,*6B
$GPVTG,78.8,T,80.9,M,30.264,N,56.000,K,A*25
$GPGGA,071737.348,4535.1173,N,12234.9826,W,1,08,1.0000,0.0,M,0.0,M,,*4D
$GPGLL,4535.1173,N,12234.9826,W,071737.348,A,,*2C
$GPGSA,A,3,25,20,23,24,16,13,11,1,4,,,,1.763,0.931,1.497*33
$GPGST,071737.348,14.0,10.9,6.3,76.5,6.1,9.8,22.2*65
$GPGSV,3,1,12,02,39,291,45,25,57,165,45,04,48,239,46,13,82,049,42*7C
$GPGSV,3,2,12,20,14,124,28,23,50,071,48,16,18,053,39,27,40,186,33*73
$GPGSV,3,3,12,10,10,299,36,08,13,195,32,07,01,001,20,06,03,352,*7F
$GPRMC,071737.348,A,4535.1173,N,12234.9826,W,30.264,299.592,140515,0.0,E,*67
$GPVTG,78.8,T,80.9,M,30.264,N,56.000,K,A*25
$GPGGA,071738.348,4535.1246,N,12235.0017,W,1,08,1.0000,0.0,M,0.0,M,,*45
$GPGLL,4535.1246,N,12235.0017,W,071738.348,A,,*24
$GPGSA,A,3,25,20,23,24,16,13,11,1,4,,,,1.763,0.931,1.497*33
$GPGST,071738.348,14.0,10.9,6.3,76.5,6.1,9.8,22.2*6A
$GPGSV,3,1,12,02,39,291,45,25,57,165,45,04,48,239,46,13,82,049,42*7C
$GPGSV,3,2,12,20,14,124,28,23,50,071,48,16,18,053,39,27,40,186,33*73
$GPGSV,3,3,12,10,10,299,36,08,13,195,32,07,01,001,20,06,03,352,*7F
$GPRMC,071738.348,A,4535.1246,N,12235.0017,W,30.264,298.922,140515,0.0,E,*69
$GPVTG,78.8,T,80.9,M,30.264,N,56.000,K,A*25
$GPGGA,071739.348,4535.1286,N,12235.0122,W,1,08,1.0000,0.0,M,0.0,M,,*4F
$GPGLL,4535.1286,N,12235.0122,W,071739.348,A,,*2E
$GPGSA,A,3,25,20,23,24,16,13,11,1,4,,,,1.763,0.931,1.497*33
$GPGST,071739.348,14.0,10.9,6.3,76.5,6.1,9.8,22.2*6B
$GPGSV,3,1,12,02,39,291,45,25,57,165,45,04,48,239,46,13,82,049,42*7C
$GPGSV,3,2,12,20,14,124,28,23,50,071,48,16,18,053,39,27,40,186,33*73
$GPGSV,3,3,12,10,10,299,36,08,13,195,32,07,01,001,20,06,03,352,*7F
$GPRMC,071739.348,A,4535.1286,N,12235.0122,W,30.264,298.377,140515,0.0,E,*69
$GPVTG,78.8,T,80.9,M,30.264,N,56.000,K,A*25
$GPGGA,071740.348,4535.1326,N,12235.0228,W,1,08,1.0000,0.0,M,0.0,M,,*43
$GPGLL,4535.1326,N,12235.0228,W,071740.348,A,,*22
$GPGSA,A,3,25,20,23,24,16,13,11,1,4,,,,1.763,0.931,1.497*33
$GPGST,071740.348,14.0,10.9,6.3,76.5,6.1,9.8,22.2*65
$GPGSV,3,1,12,02,39,291,45,25,57,165,45,04,48,239,46,13,82,049,42*7C
$GPGSV,3,2,12,20,14,124,28,23,50,071,48,16,18,053,39,27,40,186,33*73
$GPGSV,3,3,12,10,10,299,36,08,13,195,32,07,01,001,20,06,03,352,*7F
$GPRMC,071740.348,A,4535.1326,N,12235.0228,W,30.264,298.377,140515,0.0,E,*65
$GPVTG,78.8,T,80.9,M,30.264,N,56.000,K,A*25
$GPGGA,071741.348,4535.1366,N,12235.0333,W,1,08,1.0000,0.0,M,0.0,M,,*4D
$GPGLL,4535.1366,N,12235.0333,W,071741.348,A,,*2C
$GPGSA,A,3,25,20,23,24,16,13,11,1,4,,,,1.763,0.931,1.497*33
$GPGST,071741.348,14.0,10.9,6.3,76.5,6.1,9.8,22.2*64
$GPGSV,3,1,12,02,39,291,45,25,57,165,45,04,48,239,46,13,82,049,42*7C
$GPGSV,3,2,12,20,14,124,28,23,50,071,48,16,18,053,39,27,40,186,33*73
$GPGSV,3,3,12,10,10,299,36,08,13,195,32,07,01,001,20,06,03,352,*7F
$GPRMC,071741.348,A,4535.1366,N,12235.0333,W,30.264,298.377,140515,0.0,E,*6B
$GPVTG,78.8,T,80.9,M,30.264,N,56.000,K,A*25
$GPGGA,071742.348,4535.1406,N,12235.0439,W,1,08,1.0000,0.0,M,0.0,M,,*42
$GPGLL,4535.1406,N,12235.0439,W,071742.348,A,,*23
$GPGSA,A,3,25,20,23,24,16,13,11,1,4,,,,1.763,0.931,1.497*33
$GPGST,071742.348,14.0,10.9,6.3,76.5,6.1,9.8,22.2*67
$GPGSV,3,1,12,02,39,291,45,25,57,165,45,04,48,239,46,13,82,049,42*7C
$GPGSV,3,2,12,20,14,124,28,23,50,071,48,16,18,053,39,27,40,186,33*73
$GPGSV,3,3,12,10,10,299,36,08,13,195,32,07,01,001,20,06,03,352,*7F
$GPRMC,071742.348,A,4535.1406,N,12235.0439,W,30.264,298.378,140515,0.0,E,*6B
$GPVTG,78.8,T,80.9,M,30.264,N,56.000,K,A*25
$GPGGA,071743.348,4535.1412,N,12235.0524,W,1,08,1.0000,0.0,M,0.0,M,,*4B
$GPGLL,4535.1412,N,12235.0524,W,071743.348,A,,*2A
$GPGSA,A,3,25,20,23,24,16,13,11,1,4,,,,1.763,0.931,1.497*33
$GPGST,071743.348,14.0,10.9,6.3,76.5,6.1,9.8,22.2*66
$GPGSV,3,1,12,02,39,291,45,25,57,165,45,04,48,239,46,13,82,049,42*7C
$GPGSV,3,2,12,20,14,124,28,23,50,071,48,16,18,053,39,27,40,186,33*73
$GPGSV,3,3,12,10,10,299,36,08,13,195,32,07,01,001,20,06,03,352,*7F
$GPRMC,071743.348,A,4535.1412,N,12235.0524,W,21.617,276.239,140515,0.0,E,*66
$GPVTG,78.8,T,80.9,M,21.617,N,40.000,K,A*22
$GPGGA,071744.348,4535.1410,N,12235.0610,W,1,08,1.0000,0.0,M,0.0,M,,*4A
$GPGLL,4535.1410,N,12235.0610,W,071744.348,A,,*2B
$GPGSA,A,3,25,20,23,24,16,13,11,1,4,,,,1.763,0.931,1.497*33
$GPGST,071744.348,14.0,10.9,6.3,76.5,6.1,9.8,22.2*61
$GPGSV,3,1,12,02,39,291,45,25,57,165,45,04,48,239,46,13,82,049,42*7C
$GPGSV,3,2,12,20,14,124,28,23,50,071,48,16,18,053,39,27,40,186,33*73
$GPGSV,3,3,12,10,10,299,36,08,13,195,32,07,01,001,20,06,03,352,*7F
$GPRMC,071744.348,A,4535.1410,N,12235.0610,W,21.617,267.693,140515,0.0,E,*63
$GPVTG,78.8,T,80.9,M,21.617,N,40.000,K,A*22
$GPGGA,071745.348,4535.1396,N,12235.0692,W,1,08,1.0000,0.0,M,0.0,M,,*48
$GPGLL,4535.1396,N,12235.0692,W,071745.348,A,,*29
$GPGSA,A,3,25,20,23,24,16,13,11,1,4,,,,1.763,0.931,1.497*33
$GPGST,071745.348,14.0,10.9,6.3,76.5,6.1,9.8,22.2*60
$GPGSV,3,1,12,02,39,291,45,25,57,165,45,04,48,239,46,13,82,049,42*7C
$GPGSV,3,2,12,20,14,124,28,23,50,071,48,16,18,053,39,27,40,186,33*73
$GPGSV,3,3,12,10,10,299,36,08,13,195,32,07,01,001,20,06,03,352,*7F
$GPRMC,071745.348,A,4535.1396,N,12235.0692,W,21.617,256.557,140515,0.0,E,*68
$GPVTG,78.8,T,80.9,M,21.617,N,40.000,K,A*22
$GPGGA,071746.348,4535.1339,N,12235.0733,W,1,08,1.0000,0.0,M,0.0,M,,*44
$GPGLL,4535.1339,N,12235.0733,W,071746.348,A,,*25
$GPGSA,A,3,25,20,23,24,16,13,11,1,4,,,,1.763,0.931,1.497*33
$GPGST,071746.348,14.0,10.9,6.3,76.5,6.1,9.8,22.2*63
$GPGSV,3,1,12,02,39,291,45,25,57,165,45,04,48,239,46,13,82,049,42*7C
$GPGSV,3,2,12,20,14,124,28,23,50,071,48,16,18,053,39,27,40,186,33*73
$GPGSV,3,3,12,10,10,299,36,08,13,195,32,07,01,001,20,06,03,352,*7F
$GPRMC,071746.348,A,4535.1339,N,12235.0733,W,21.617,206.816,140515,0.0,E,*69
$GPVTG,78.8,T,80.9,M,21.617,N,40.000,K,A*22
$GPGGA,071747.348,4535.1283,N,12235.0712,W,1,08,1.0000,0.0,M,0.0,M,,*46
$GPGLL,4535.1283,N,12235.0712,W,071747.348,A,,*27
$GPGSA,A,3,25,20,23,24,16,13,11,1,4,,,,1.763,0.931,1.497*33
$GPGST,071747.348,14.0,10.9,6.3,76.5,6.1,9.8,22.2*62
$GPGSV,3,1,12,02,39,291,45,25,57,165,45,04,48,239,46,13,82,049,42*7C
$GPGSV,3,2,12,20,14,124,28,23,50,071,48,16,18,053,39,27,40,186,33*73
$GPGSV,3,3,12,10,10,299,36,08,13,195,32,07,01,001,20,06,03,352,*7F
$GPRMC,071747.348,A,4535.1283,N,12235.0712,W,21.617,165.145,140515,0.0,E,*62
$GPVTG,78.8,T,80.9,M,21.617,N,40.000,K,A*22
$GPGGA,071748.348,4535.1246,N,12235.0648,W,1,08,1.0000,0.0,M,0.0,M,,*4E
$GPGLL,4535.1246,N,12235.0648,W,071748.348,A,,*2F
$GPGSA,A,3,25,20,23,24,16,13,11,1,4,,,,1.763,0.931,1.497*33
$GPGST,071748.348,14.0,10.9,6.3,76.5,6.1,9.8,22.2*6D
$GPGSV,3,1,12,02,39,291,45,25,57,165,45,04,48,239,46,13,82,049,42*7C
$GPGSV,3,2,12,20,14,124,28,23,50,071,48,16,18,053,39,27,40,186,33*73
$GPGSV,3,3,12,10,10,299,36,08,13,195,32,07,01,001,20,06,03,352,*7F
$GPRMC,071748.348,A,4535.1246,N,12235.0648,W,21.617,129.640,140515,0.0,E,*60
$GPVTG,78.8,T,80.9,M,21.617,N,40.000,K,A*22
$GPGGA,071749.348,4535.1226,N,12235.0568,W,1,08,1.0000,0.0,M,0.0,M,,*48
$GPGLL,4535.1226,N,12235.0568,W,071749.348,A,,*29
$GPGSA,A,3,25,20,23,24,16,13,11,1,4,,,,1.763,0.931,1.497*33
$GPGST,071749.348,14.0,10.9,6.3,76.5,6.1,9.8,22.2*6C
$GPGSV,3,1,12,02,39,291,45,25,57,165,45,04,48,239,46,13,82,049,42*7C
$GPGSV,3,2,12,20,14,124,28,23,50,071,48,16,18,053,39,27,40,186,33*73
$GPGSV,3,3,12,10,10,299,36,08,13,195,32,07,01,001,20,06,03,352,*7F
$GPRMC,071749.348,A,4535.1226,N,12235.0568,W,21.617,109.712,140515,0.0,E,*62
$GPVTG,78.8,T,80.9,M,21.617,N,40.000,K,A*22
$GPGGA,071750.348,4535.1213,N,12235.0484,W,1,08,1.0000,0.0,M,0.0,M,,*45
$GPGLL,4535.1213,N,12235.0484,W,071750.348,A,,*24
$GPGSA,A,3,25,20,23,24,16,13,11,1,4,,,,1.763,0.931,1.497*33
$GPGST,071750.348,14.0,10.9,6.3,76.5,6.1,9.8,22.2*64
$GPGSV,3,1,12,02,39,291,45,25,57,165,45,04,48,239,46,13,82,049,42*7C
$GPGSV,3,2,12,20,14,124,28,23,50,071,48,16,18,053,39,27,40,186,33*73
$GPGSV,3,3,12,10,10,299,36,08,13,195,32,07,01,001,20,06,03,352,*7F
$GPRMC,071750.348,A,4535.1213,N,12235.0484,W,21.617,101.718,140515,0.0,E,*6D
$GPVTG,78.8,T,80.9,M,21.617,N,40.000,K,A*22
$GPGGA,071751.348,4535.1201,N,12235.0401,W,1,08,1.0000,0.0,M,0.0,M,,*4A
$GPGLL,4535.1201,N,12235.0401,W,071751.348,A,,*2B
$GPGSA,A,3,25,20,23,24,16,13,11,1,4,,,,1.763,0.931,1.497*33
$GPGST,071751.348,14.0,10.9,6.3,76.5,6.1,9.8,22.2*65
$GPGSV,3,1,12,02,39,291,45,25,57,165,45,04,48,239,46,13,82,049,42*7C
$GPGSV,3,2,12,20,14,124,28,23,50,071,48,16,18,053,39,27,40,186,33*73
$GPGSV,3,3,12,10,10,299,36,08,13,195,32,07,01,001,20,06,03,352,*7F
$GPRMC,071751.348,A,4535.1201,N,12235.0401,W,21.617,101.718,140515,0.0,E,*62
$GPVTG,78.8,T,80.9,M,21.617,N,40.000,K,A*22
$GPGGA,071752.348,4535.1189,N,12235.0317,W,1,08,1.0000,0.0,M,0.0,M,,*4A
$GPGLL,4535.1189,N,12235.0317,W,071752.348,A,,*2B
$GPGSA,A,3,25,20,23,24,16,13,11,1,4,,,,1.763,0.931,1.497*33
$GPGST,071752.348,14.0,10.9,6.3,76.5,6.1,9.8,22.2*66
$GPGSV,3,1,12,02,39,291,45,25,57,165,45,04,48,239,46,13,82,049,42*7C
$GPGSV,3,2,12,20,14,124,28,23,50,071,48,16,18,053,39,27,40,186,33*73
$GPGSV,3,3,12,10,10,299,36,08,13,195,32,07,01,001,20,06,03,352,*7F
$GPRMC,071752.348,A,4535.1189,N,12235.0317,W,21.617,101.718,140515,0.0,E,*62
$GPVTG,78.8,T,80.9,M,21.617,N,40.000,K,A*22
$GPGGA,071753.348,4535.1177,N,12235.0233,W,1,08,1.0000,0.0,M,0.0,M,,*4D
$GPGLL,4535.1177,N,12235.0233,W,071753.348,A,,*2C
$GPGSA,A,3,25,20,23,24,16,13,11,1,4,,,,1.763,0.931,1.497*33
$GPGST,071753.348,14.0,10.9,6.3,76.5,6.1,9.8,22.2*67
$GPGSV,3,1,12,02,39,291,45,25,57,165,45,04,48,239,46,13,82,049,42*7C
$GPGSV,3,2,12,20,14,124,28,23,50,071,48,16,18,053,39,27,40,186,33*73
$GPGSV,3,3,12,10,10,299,36,08,13,195,32,07,01,001,20,06,03,352,*7F
$GPRMC,071753.348,A,4535.1177,N,12235.0233,W,21.617,101.718,140515,0.0,E,*65
$GPVTG,78.8,T,80.9,M,21.617,N,40.000,K,A*22
$GPGGA,071754.348,4535.1160,N,12235.0151,W,1,08,1.0000,0.0,M,0.0,M,,*4B
$GPGLL,4535.1160,N,12235.0151,W,071754.348,A,,*2A
$GPGSA,A,3,25,20,23,24,16,13,11,1,4,,,,1.763,0.931,1.497*33
$GPGST,071754.348,14.0,10.9,6.3,76.5,6.1,9.8,22.2*60
$GPGSV,3,1,12,02,39,291,45,25,57,165,45,04,48,239,46,13,82,049,42*7C
$GPGSV,3,2,12,20,14,124,28,23,50,071,48,16,18,053,39,27,40,186,33*73
$GPGSV,3,3,12,10,10,299,36,08,13,195,32,07,01,001,20,06,03,352,*7F
$GPRMC,071754.348,A,4535.1160,N,12235.0151,W,21.617,106.282,140515,0.0,E,*62
$GPVTG,78.8,T,80.9,M,21.617,N,40.000,K,A*22
$GPGGA,071755.348,4535.1141,N,12235.0069,W,1,08,1.0000,0.0,M,0.0,M,,*43
$GPGLL,4535.1141,N,12235.0069,W,071755.348,A,,*22
$GPGSA,A,3,25,20,23,24,16,13,11,1,4,,,,1.763,0.931,1.497*33
$GPGST,071755.348,14.0,10.9,6.3,76.5,6.1,9.8,22.2*61
$GPGSV,3,1,12,02,39,291,45,25,57,165,45,04,48,239,46,13,82,049,42*7C
$GPGSV,3,2,12,20,14,124,28,23,50,071,48,16,18,053,39,27,40,186,33*73
$GPGSV,3,3,12,10,10,299,36,08,13,195,32,07,01,001,20,06,03,352,*7F
$GPRMC,071755.348,A,4535.1141,N,12235.0069,W,21.617,108.340,140515,0.0,E,*6B
$GPVTG,78.8,T,80.9,M,21.617,N,40.000,K,A*22
$GPGGA,071756.348,4535.1120,N,12234.9989,W,1,08,1.0000,0.0,M,0.0,M,,*48
$GPGLL,4535.1120,N,12234.9989,W,071756.348,A,,*29
$GPGSA,A,3,25,20,23,24,16,13,11,1,4,,,,1.763,0.931,1.497*33
$GPGST,071756.348,14.0,10.9,6.3,76.5,6.1,9.8,22.2*62
$GPGSV,3,1,12,02,39,291,45,25,57,165,45,04,48,239,46,13,82,049,42*7C
$GPGSV,3,2,12,20,14,124,28,23,50,071,48,16,18,053,39,27,40,186,33*73
$GPGSV,3,3,12,10,10,299,36,08,13,195,32,07,01,001,20,06,03,352,*7F
$GPRMC,071756.348,A,4535.1120,N,12234.9989,W,21.617,110.518,140515,0.0,E,*62
$GPVTG,78.8,T,80.9,M,21.617,N,40.000,K,A*22
$GPGGA,071757.348,4535.1089,N,12234.9916,W,1,08,1.0000,0.0,M,0.0,M,,*4D
$GPGLL,4535.1089,N,12234.9916,W,071757.348,A,,*2C
$GPGSA,A,3,25,20,23,24,16,13,11,1,4,,,,1.763,0.931,1.497*33
$GPGST,071757.348,14.0,10.9,6.3,76.5,6.1,9.8,22.2*63
$GPGSV,3,1,12,02,39,291,45,25,57,165,45,04,48,239,46,13,82,049,42*7C
$GPGSV,3,2,12,20,14,124,28,23,50,071,48,16,18,053,39,27,40,186,33*73
$GPGSV,3,3,12,10,10,299,36,08,13,195,32,07,01,001,20,06,03,352,*7F
$GPRMC,071757.348,A,4535.1089,N,12234.9916,W,21.617,121.093,140515,0.0,E,*63
$GPVTG,78.8,T,80.9,M,21.617,N,40.000,K,A*22
$GPGGA,071758.348,4535.1049,N,12234.9853,W,1,08,1.0000,0.0,M,0.0,M,,*4E
$GPGLL,4535.1049,N,12234.9853,W,071758.348,A,,*2F
$GPGSA,A,3,25,20,23,24,16,13,11,1,4,,,,1.763,0.931,1.497*33
$GPGST,071758.348,14.0,10.9,6.3,76.5,6.1,9.8,22.2*6C
$GPGSV,3,1,12,02,39,291,45,25,57,165,45,04,48,239,46,13,82,049,42*7C
$GPGSV,3,2,12,20,14,124,28,23,50,071,48,16,18,053,39,27,40,186,33*73
$GPGSV,3,3,12,10,10,299,36,08,13,195,32,07,01,001,20,06,03,352,*7F
$GPRMC,071758.348,A,4535.1049,N,12234.9853,W,21.617,132.280,140515,0.0,E,*62
$GPVTG,78.8,T,80.9,M,21.617,N,40.000,K,A*22
$GPGGA,071759.348,4535.1004,N,12234.9795,W,1,08,1.0000,0.0,M,0.0,M,,*43
$GPGLL,4535.1004,N,12234.9795,W,071759.348,A,,*22
$GPGSA,A,3,25,20,23,24,16,13,11,1,4,,,,1.763,0.931,1.497*33
$GPGST,071759.348,14.0,10.9,6.3,76.5,6.1,9.8,22.2*6D
$GPGSV,3,1,12,02,39,291,45,25,57,165,45,04,48,239,46,13,82,049,42*7C
$GPGSV,3,2,12,20,14,124,28,23,50,071,48,16,18,053,39,27,40,186,33*73
$GPGSV,3,3,12,10,10,299,36,08,13,195,32,07,01,001,20,06,03,352,*7F
$GPRMC,071759.348,A,4535.1004,N,12234.9795,W,21.617,138.241,140515,0.0,E,*68
$GPVTG,78.8,T,80.9,M,21.617,N,40.000,K,A*22
$GPGGA,071800.348,4535.0952,N,12234.9679,W,1,08,1.0000,0.0,M,0.0,M,,*48
$GPGLL,4535.0952,N,12234.9679,W,071800.348,A,,*29
$GPGSA,A,3,25,20,23,24,16,13,11,1,4,,,,1.763,0.931,1.497*33
$GPGST,071800.348,14.0,10.9,6.3,76.5,6.1,9.8,22.2*6E
$GPGSV,3,1,12,02,39,291,45,25,57,165,45,04,48,239,46,13,82,049,42*7C
$GPGSV,3,2,12,20,14,124,28,23,50,071,48,16,18,053,39,27,40,186,33*73
$GPGSV,3,3,12,10,10,299,36,08,13,195,32,07,01,001,20,06,03,352,*7F
$GPRMC,071800.348,A,4535.0952,N,12234.9679,W,30.264,122.663,140515,0.0,E,*6C
$GPVTG,78.8,T,80.9,M,30.264,N,56.000,K,A*25
$GPGGA,071801.348,4535.0910,N,12234.9575,W,1,08,1.0000,0.0,M,0.0,M,,*40
$GPGLL,4535.0910,N,12234.9575,W,071801.348,A,,*21
$GPGSA,A,3,25,20,23,24,16,13,11,1,4,,,,1.763,0.931,1.497*33
$GPGST,071801.348,14.0,10.9,6.3,76.5,6.1,9.8,22.2*6F
$GPGSV,3,1,12,02,39,291,45,25,57,165,45,04,48,239,46,13,82,049,42*7C
$GPGSV,3,2,12,20,14,124,28,23,50,071,48,16,18,053,39,27,40,186,33*73
$GPGSV,3,3,12,10,10,299,36,08,13,195,32,07,01,001,20,06,03,352,*7F
$GPRMC,071801.348,A,4535.0910,N,12234.9575,W,30.264,120.043,140515,0.0,E,*62
$GPVTG,78.8,T,80.9,M,30.264,N,56.000,K,A*25
$GPGGA,071802.348,4535.0844,N,12234.9407,W,1,08,1.0000,0.0,M,0.0,M,,*47
$GPGLL,4535.0844,N,12234.9407,W,071802.348,A,,*26
$GPGSA,A,3,25,20,23,24,16,13,11,1,4,,,,1.763,0.931,1.497*33
$GPGST,071802.348,14.0,10.9,6.3,76.5,6.1,9.8,22.2*6C
$GPGSV,3,1,12,02,39,291,45,25,57,165,45,04,48,239,46,13,82,049,42*7C
$GPGSV,3,2,12,20,14,124,28,23,50,071,48,16,18,053,39,27,40,186,33*73
$GPGSV,3,3,12,10,10,299,36,08,13,195,32,07,01,001,20,06,03,352,*7F
$GPRMC,071802.348,A,4535.0844,N,12234.9407,W,30.264,119.331,140515,0.0,E,*69
$GPVTG,78.8,T,80.9,M,30.264,N,56.000,K,A*25
$GPGGA,071803.348,4535.0803,N,12234.9302,W,1,08,1.0000,0.0,M,0.0,M,,*47
$GPGLL,4535.0803,N,12234.9302,W,071803.348,A,,*26
$GPGSA,A,3,25,20,23,24,16,13,11,1,4,,,,1.763,0.931,1.497*33
$GPGST,071803.348,14.0,10.9,6.3,76.5,6.1,9.8,22.2*6D
$GPGSV,3,1,12,02,39,291,45,25,57,165,45,04,48,239,46,13,82,049,42*7C
$GPGSV,3,2,12,20,14,124,28,23,50,071,48,16,18,053,39,27,40,186,33*73
$GPGSV,3,3,12,10,10,299,36,08,13,195,32,07,01,001,20,06,03,352,*7F
$GPRMC,071803.348,A,4535.0803,N,12234.9302,W,30.264,118.901,140515,0.0,E,*61
$GPVTG,78.8,T,80.9,M,30.264,N,56.000,K,A*25
$GPGGA,071804.348,4535.0734,N,12234.9124,W,1,08,1.0000,0.0,M,0.0,M,,*4D
$GPGLL,4535.0734,N,12234.9124,W,071804.348,A,,*2C
$GPGSA,A,3,25,20,23,24,16,13,11,1,4,,,,1.763,0.931,1.497*33
$GPGST,071804.348,14.0,10.9,6.3,76.5,6.1,9.8,22.2*6A
$GPGSV,3,1,12,02,39,291,45,25,57,165,45,04,48,239,46,13,82,049,42*7C
$GPGSV,3,2,12,20,14,124,28,23,50,071,48,16,18,053,39,27,40,186,33*73
$GPGSV,3,3,12,10,10,299,36,08,13,195,32,07,01,001,20,06,03,352,*7F
$GPRMC,071804.348,A,4535.0734,N,12234.9124,W,30.264,119.062,140515,0.0,E,*66
$GPVTG,78.8,T,80.9,M,30.264,N,56.000,K,A*25
$GPGGA,071805.348,4535.0693,N,12234.9019,W,1,08,1.0000,0.0,M,0.0,M,,*4F
$GPGLL,4535.0693,N,12234.9019,W,071805.348,A,,*2E
$GPGSA,A,3,25,20,23,24,16,13,11,1,4,,,,1.763,0.931,1.497*33
$GPGST,071805.348,14.0,10.9,6.3,76.5,6.1,9.8,22.2*6B
$GPGSV,3,1,12,02,39,291,45,25,57,165,45,04,48,239,46,13,82,049,42*7C
$GPGSV,3,2,12,20,14,124,28,23,50,071,48,16,18,053,39,27,40,186,33*73
$GPGSV,3,3,12,10,10,299,36,08,13,195,32,07,01,001,20,06,03,352,*7F
$GPRMC,071805.348,A,4535.0693,N,12234.9019,W,30.264,119.175,140515,0.0,E,*63
$GPVTG,78.8,T,80.9,M,30.264,N,56.000,K,A*25
$GPGGA,071806.348,4535.0652,N,12234.8915,W,1,08,1.0000,0.0,M,0.0,M,,*45
$GPGLL,4535.0652,N,12234.8915,W,071806.348,A,,*24
$GPGSA,A,3,25,20,23,24,16,13,11,1,4,,,,1.763,0.931,1.497*33
$GPGST,071806.348,14.0,10.9,6.3,76.5,6.1,9.8,22.2*68
$GPGSV,3,1,12,02,39,291,45,25,57,165,45,04,48,239,46,13,82,049,42*7C
$GPGSV,3,2,12,20,14,124,28,23,50,071,48,16,18,053,39,27,40,186,33*73
$GPGSV,3,3,12,10,10,299,36,08,13,195,32,07,01,001,20,06,03,352,*7F
$GPRMC,071806.348,A,4535.0652,N,12234.8915,W,30.264,119.175,140515,0.0,E,*69
$GPVTG,78.8,T,80.9,M,30.264,N,56.000,K,A*25
$GPGGA,071807.348,4535.0611,N,12234.8810,W,1,08,1.0000,0.0,M,0.0,M,,*47
$GPGLL,4535.0611,N,12234.8810,W,071807.348,A,,*26
$GPGSA,A,3,25,20,23,24,16,13,11,1,4,,,,1.763,0.931,1.497*33
$GPGST,071807.348,14.0,10.9,6.3,76.5,6.1,9.8,22.2*69
$GPGSV,3,1,12,02,39,291,45,25,57,165,45,04,48,239,46,13,82,049,42*7C
$GPGSV,3,2,12,20,14,124,28,23,50,071,48,16,18,053,39,27,40,186,33*73
$GPGSV,3,3,12,10,10,299,36,08,13,195,32,07,01,001,20,06,03,352,*7F
$GPRMC,071807.348,A,4535.0611,N,12234.8810,W,30.264,119.174,140515,0.0,E,*6A
$GPVTG,78.8,T,80.9,M,30.264,N,56.000,K,A*25
$GPGGA,071808.348,4535.0570,N,12234.8705,W,1,08,1.0000,0.0,M,0.0,M,,*47
$GPGLL,4535.0570,N,12234.8705,W,071808.348,A,,*26
$GPGSA,A,3,25,20,23,24,16,13,11,1,4,,,,1.763,0.931,1.497*33
$GPGST,071808.348,14.0,10.9,6.3,76.5,6.1,9.8,22.2*66
$GPGSV,3,1,12,02,39,291,45,25,57,165,45,04,48,239,46,13,82,049,42*7C
$GPGSV,3,2,12,20,14,124,28,23,50,071,48,16,18,053,39,27,40,186,33*73
$GPGSV,3,3,12,10,10,299,36,08,13,195,32,07,01,001,20,06,03,352,*7F
$GPRMC,071808.348,A,4535.0570,N,12234.8705,W,30.264,119.174,140515,0.0,E,*6A
$GPVTG,78.8,T,80.9,M,30.264,N,56.000,K,A*25
$GPGGA,071809.348,4535.0530,N,12234.8601,W,1,08,1.0000,0.0,M,0.0,M,,*47
$GPGLL,4535.0530,N,12234.8601,W,071809.348,A,,*26
$GPGSA,A,3,25,20,23,24,16,13,11,1,4,,,,1.763,0.931,1.497*33
$GPGST,071809.348,14.0,10.9,6.3,76.5,6.1,9.8,22.2*67
$GPGSV,3,1,12,02,39,291,45,25,57,165,45,04,48,239,46,13,82,049,42*7C
$GPGSV,3,2,12,20,14,124,28,23,50,071,48,16,18,053,39,27,40,186,33*73
$GPGSV,3,3,12,10,10,299,36,08,13,195,32,07,01,001,20,06,03,352,*7F
$GPRMC,071809.348,A,4535.0530,N,12234.8601,W,30.264,119.174,140515,0.0,E,*6A
$GPVTG,78.8,T,80.9,M,30.264,N,56.000,K,A*25
$GPGGA,071810.348,4535.0489,N,12234.8496,W,1,08,1.0000,0.0,M,0.0,M,,*40
$GPGLL,4535.0489,N,12234.8496,W,071810.348,A,,*21
$GPGSA,A,3,25,20,23,24,16,13,11,1,4,,,,1.763,0.931,1.497*33
$GPGST,071810.348,14.0,10.9,6.3,76.5,6.1,9.8,22.2*6F
$GPGSV,3,1,12,02,39,291,45,25,57,165,45,04,48,239,46,13,82,049,42*7C
$GPGSV,3,2,12,20,14,124,28,23,50,071,48,16,18,053,39,27,40,186,33*73
$GPGSV,3,3,12,10,10,299,36,08,13,195,32,07,01,001,20,06,03,352,*7F
$GPRMC,071810.348,A,4535.0489,N,12234.8496,W,30.264,119.174,140515,0.0,E,*6D
$GPVTG,78.8,T,80.9,M,30.264,N,56.000,K,A*25
$GPGGA,071811.348,4535.0448,N,12234.8391,W,1,08,1.0000,0.0,M,0.0,M,,*4C
$GPGLL,4535.0448,N,12234.8391,W,071811.348,A,,*2D
$GPGSA,A,3,25,20,23,24,16,13,11,1,4,,,,1.763,0.931,1.497*33
$GPGST,071811.348,14.0,10.9,6.3,76.5,6.1,9.8,22.2*6E
$GPGSV,3,1,12,02,39,291,45,25,57,165,45,04,48,239,46,13,82,049,42*7C
$GPGSV,3,2,12,20,14,124,28,23,50,071,48,16,18,053,39,27,40,186,33*73
$GPGSV,3,3,12,10,10,299,36,08,13,195,32,07,01,001,20,06,03,352,*7F
$GPRMC,071811.348,A,4535.0448,N,12234.8391,W,30.264,119.174,140515,0.0,E,*61
$GPVTG,78.8,T,80.9,M,30.264,N,56.000,K,A*25
$GPGGA,071812.348,4535.0407,N,12234.8286,W,1,08,1.0000,0.0,M,0.0,M,,*43
$GPGLL,4535.0407,N,12234.8286,W,071812.348,A,,*22
$GPGSA,A,3,25,20,23,24,16,13,11,1,4,,,,1.763,0.931,1.497*33
$GPGST,071812.348,14.0,10.9,6.3,76.5,6.1,9.8,22.2*6D
$GPGSV,3,1,12,02,39,291,45,25,57,165,45,04,48,239,46,13,82,049,42*7C
$GPGSV,3,2,12,20,14,124,28,23,50,071,48,16,18,053,39,27,40,186,33*73
$GPGSV,3,3,12,10,10,299,36,08,13,195,32,07,01,001,20,06,03,352,*7F
$GPRMC,071812.348,A,4535.0407,N,12234.8286,W,30.264,119.174,140515,0.0,E,*6E
$GPVTG,78.8,T,80.9,M,30.264,N,56.000,K,A*25
$GPGGA,071813.348,4535.0355,N,12234.8152,W,1,08,1.0000,0.0,M,0.0,M,,*48
$GPGLL,4535.0355,N,12234.8152,W,071813.348,A,,*29
$GPGSA,A,3,25,20,23,24,16,13,11,1,4,,,,1.763,0.931,1.497*33
$GPGST,071813.348,14.0,10.9,6.3,76.5,6.1,9.8,22.2*6C
$GPGSV,3,1,12,02,39,291,45,25,57,165,45,04,48,239,46,13,82,049,42*7C
$GPGSV,3,2,12,20,14,124,28,23,50,071,48,16,18,053,39,27,40,186,33*73
$GPGSV,3,3,12,10,10,299,36,08,13,195,32,07,01,001,20,06,03,352,*7F
$GPRMC,071813.348,A,4535.0355,N,12234.8152,W,30.264,118.678,140515,0.0,E,*6F
$GPVTG,78.8,T,80.9,M,30.264,N,56.000,K,A*25
$GPGGA,071814.348,4535.0315,N,12234.8046,W,1,08,1.0000,0.0,M,0.0,M,,*4F
$GPGLL,4535.0315,N,12234.8046,W,071814.348,A,,*2E
$GPGSA,A,3,25,20,23,24,16,13,11,1,4,,,,1.763,0.931,1.497*33
$GPGST,071814.348,14.0,10.9,6.3,76.5,6.1,9.8,22.2*6B
$GPGSV,3,1,12,02,39,291,45,25,57,165,45,04,48,239,46,13,82,049,42*7C
$GPGSV,3,2,12,20,14,124,28,23,50,071,48,16,18,053,39,27,40,186,33*73
$GPGSV,3,3,12,10,10,299,36,08,13,195,32,07,01,001,20,06,03,352,*7F
$GPRMC,071814.348,A,4535.0315,N,12234.8046,W,30.264,118.538,140515,0.0,E,*6F
$GPVTG,78.8,T,80.9,M,30.264,N,56.000,K,A*25
$GPGGA,071815.348,4535.0275,N,12234.7941,W,1,08,1.0000,0.0,M,0.0,M,,*48
$GPGLL,4535.0275,N,12234.7941,W,071815.348,A,,*29
$GPGSA,A,3,25,20,23,24,16,13,11,1,4,,,,1.763,0.931,1.497*33
$GPGST,071815.348,14.0,10.9,6.3,76.5,6.1,9.8,22.2*6A
$GPGSV,3,1,12,02,39,291,45,25,57,165,45,04,48,239,46,13,82,049,42*7C
$GPGSV,3,2,12,20,14,124,28,23,50,071,48,16,18,053,39,27,40,186,33*73
$GPGSV,3,3,12,10,10,299,36,08,13,195,32,07,01,001,20,06,03,352,*7F
$GPRMC,071815.348,A,4535.0275,N,12234.7941,W,30.264,118.538,140515,0.0,E,*68
$GPVTG,78.8,T,80.9,M,30.264,N,56.000,K,A*25
$GPGGA,071816.348,4535.0235,N,12234.7835,W,1,08,1.0000,0.0,M,0.0,M,,*4D
$GPGLL,4535.0235,N,12234.7835,W,071816.348,A,,*2C
$GPGSA,A,3,25,20,23,24,16,13,11,1,4,,,,1.763,0.931,1.497*33
$GPGST,071816.348,14.0,10.9,6.3,76.5,6.1,9.8,22.2*69
$GPGSV,3,1,12,02,39,291,45,25,57,165,45,04,48,239,46,13,82,049,42*7C
$GPGSV,3,2,12,20,14,124,28,23,50,071,48,16,18,053,39,27,40,186,33*73
$GPGSV,3,3,12,10,10,299,36,08,13,195,32,07,01,001,20,06,03,352,*7F
$GPRMC,071816.348,A,4535.0235,N,12234.7835,W,30.264,118.538,140515,0.0,E,*6D
$GPVTG,78.8,T,80.9,M,30.264,N,56.000,K,A*25
$GPGGA,071817.348,4535.0195,N,12234.7730,W,1,08,1.0000,0.0,M,0.0,M,,*4F
$GPGLL,4535.0195,N,12234.7730,W,071817.348,A,,*2E
$GPGSA,A,3,25,20,23,24,16,13,11,1,4,,,,1.763,0.931,1.497*33
$GPGST,071817.348,14.0,10.9,6.3,76.5,6.1,9.8,22.2*68
$GPGSV,3,1,12,02,39,291,45,25,57,165,45,04,48,239,46,13,82,049,42*7C
$GPGSV,3,2,12,20,14,124,28,23,50,071,48,16,18,053,39,27,40,186,33*73
$GPGSV,3,3,12,10,10,299,36,08,13,195,32,07,01,001,20,06,03,352,*7F
$GPRMC,071817.348,A,4535.0195,N,12234.7730,W,30.264,118.538,140515,0.0,E,*6F
$GPVTG,78.8,T,80.9,M,30.264,N,56.000,K,A*25
$GPGGA,071818.348,4535.0155,N,12234.7625,W,1,08,1.0000,0.0,M,0.0,M,,*49
$GPGLL,4535.0155,N,12234.7625,W,071818.348,A,,*28
$GPGSA,A,3,25,20,23,24,16,13,11,1,4,,,,1.763,0.931,1.497*33
$GPGST,071818.348,14.0,10.9,6.3,76.5,6.1,9.8,22.2*67
$GPGSV,3,1,12,02,39,291,45,25,57,165,45,04,48,239,46,13,82,049,42*7C
$GPGSV,3,2,12,20,14,124,28,23,50,071,48,16,18,053,39,27,40,186,33*73
$GPGSV,3,3,12,10,10,299,36,08,13,195,32,07,01,001,20,06,03,352,*7F
$GPRMC,071818.348,A,4535.0155,N,12234.7625,W,30.264,118.538,140515,0.0,E,*69
$GPVTG,78.8,T,80.9,M,30.264,N,56.000,K,A*25
$GPGGA,071819.348,4535.0115,N,12234.7519,W,1,08,1.0000,0.0,M,0.0,M,,*40
$GPGLL,4535.0115,N,12234.7519,W,071819.348,A,,*21
$GPGSA,A,3,25,20,23,24,16,13,11,1,4,,,,1.763,0.931,1.497*33
$GPGST,071819.348,14.0,10.9,6.3,76.5,6.1,9.8,22.2*66
$GPGSV,3,1,12,02,39,291,45,25,57,165,45,04,48,239,46,13,82,049,42*7C
$GPGSV,3,2,12,20,14,124,28,23,50,071,48,16,18,053,39,27,40,186,33*73
$GPGSV,3,3,12,10,10,299,36,08,13,195,32,07,01,001,20,06,03,352,*7F
$GPRMC,071819.348,A,4535.0115,N,12234.7519,W,30.264,118.538,140515,0.0,E,*60
$GPVTG,78.8,T,80.9,M,30.264,N,56.000,K,A*25
$GPGGA,071820.348,4535.0074,N,12234.7414,W,1,08,1.0000,0.0,M,0.0,M,,*40
$GPGLL,4535.0074,N,12234.7414,W,071820.348,A,,*21
$GPGSA,A,3,25,20,23,24,16,13,11,1,4,,,,1.763,0.931,1.497*33
$GPGST,071820.348,14.0,10.9,6.3,76.5,6.1,9.8,22.2*6C
$GPGSV,3,1,12,02,39,291,45,25,57,165,45,04,48,239,46,13,82,049,42*7C
$GPGSV,3,2,12,20,14,124,28,23,50,071,48,16,18,053,39,27,40,186,33*73
$GPGSV,3,3,12,10,10,299,36,08,13,195,32,07,01,001,20,06,03,352,*7F
$GPRMC,071820.348,A,4535.0074,N,12234.7414,W,30.264,118.538,140515,0.0,E,*60
$GPVTG,78.8,T,80.9,M,30.264,N,56.000,K,A*25
$GPGGA,071821.348,4535.0033,N,12234.7310,W,1,08,1.0000,0.0,M,0.0,M,,*41
$GPGLL,4535.0033,N,12234.7310,W,071821.348,A,,*20
$GPGSA,A,3,25,20,23,24,16,13,11,1,4,,,,1.763,0.931,1.497*33
$GPGST,071821.348,14.0,10.9,6.3,76.5,6.1,9.8,22.2*6D
$GPGSV,3,1,12,02,39,291,45,25,57,165,45,04,48,239,46,13,82,049,42*7C
$GPGSV,3,2,12,20,14,124,28,23,50,071,48,16,18,053,39,27,40,186,33*73
$GPGSV,3,3,12,10,10,299,36,08,13,195,32,07,01,001,20,06,03,352,*7F
$GPRMC,071821.348,A,4535.0033,N,12234.7310,W,30.264,119.922,140515,0.0,E,*67
$GPVTG,78.8,T,80.9,M,30.264,N,56.000,K,A*25
$GPGGA,071822.348,4534.9990,N,12234.7206,W,1,08,1.0000,0.0,M,0.0,M,,*4C
$GPGLL,4534.9990,N,12234.7206,W,071822.348,A,,*2D
$GPGSA,A,3,25,20,23,24,16,13,11,1,4,,,,1.763,0.931,1.497*33
$GPGST,071822.348,14.0,10.9,6.3,76.5,6.1,9.8,22.2*6E
$GPGSV,3,1,12,02,39,291,45,25,57,165,45,04,48,239,46,13,82,049,42*7C
$GPGSV,3,2,12,20,14,124,28,23,50,071,48,16,18,053,39,27,40,186,33*73
$GPGSV,3,3,12,10,10,299,36,08,13,195,32,07,01,001,20,06,03,352,*7F
$GPRMC,071822.348,A,4534.9990,N,12234.7206,W,30.264,120.241,140515,0.0,E,*6E
$GPVTG,78.8,T,80.9,M,30.264,N,56.000,K,A*25
$GPGGA,071823.348,4534.9948,N,12234.7103,W,1,08,1.0000,0.0,M,0.0,M,,*4E
$GPGLL,4534.9948,N,12234.7103,W,071823.348,A,,*2F
$GPGSA,A,3,25,20,23,24,16,13,11,1,4,,,,1.763,0.931,1.497*33
$GPGST,071823.348,14.0,10.9,6.3,76.5,6.1,9.8,22.2*6F
$GPGSV,3,1,12,02,39,291,45,25,57,165,45,04,48,239,46,13,82,049,42*7C
$GPGSV,3,2,12,20,14,124,28,23,50,071,48,16,18,053,39,27,40,186,33*73
$GPGSV,3,3,12,10,10,299,36,08,13,195,32,07,01,001,20,06,03,352,*7F
$GPRMC,071823.348,A,4534.9948,N,12234.7103,W,30.264,120.241,140515,0.0,E,*6C
$GPVTG,78.8,T,80.9,M,30.264,N,56.000,K,A*25
$GPGGA,071824.348,4534.9906,N,12234.6999,W,1,08,1.0000,0.0,M,0.0,M,,*49
$GPGLL,4534.9906,N,12234.6999,W,071824.348,A,,*28
$GPGSA,A,3,25,20,23,24,16,13,11,1,4,,,,1.763,0.931,1.497*33
$GPGST,071824.348,14.0,10.9,6.3,76.5,6.1,9.8,22.2*68
$GPGSV,3,1,12,02,39,291,45,25,57,165,45,04,48,239,46,13,82,049,42*7C
$GPGSV,3,2,12,20,14,124,28,23,50,071,48,16,18,053,39,27,40,186,33*73
$GPGSV,3,3,12,10,10,299,36,08,13,195,32,07,01,001,20,06,03,352,*7F
$GPRMC,071824.348,A,4534.9906,N,12234.6999,W,30.264,120.241,140515,0.0,E,*6B
$GPVTG,78.8,T,80.9,M,30.264,N,56.000,K,A*25
$GPGGA,071825.348,4534.9863,N,12234.6896,W,1,08,1.0000,0.0,M,0.0,M,,*44
$GPGLL,4534.9863,N,12234.6896,W,071825.348,A,,*25
$GPGSA,A,3,25,20,23,24,16,13,11,1,4,,,,1.763,0.931,1.497*33
$GPGST,071825.348,14.0,10.9,6.3,76.5,6.1,9.8,22.2*69
$GPGSV,3,1,12,02,39,291,45,25,57,165,45,04,48,239,46,13,82,049,42*7C
$GPGSV,3,2,12,20,14,124,28,23,50,071,48,16,18,053,39,27,40,186,33*73
$GPGSV,3,3,12,10,10,299,36,08,13,195,32,07,01,001,20,06,03,352,*7F
$GPRMC,071825.348,A,4534.9863,N,12234.6896,W,30.264,120.241,140515,0.0,E,*66
$GPVTG,78.8,T,80.9,M,30.264,N,56.000,K,A*25
$GPGGA,071826.348,4534.9821,N,12234.6792,W,1,08,1.0000,0.0,M,0.0,M,,*4A
$GPGLL,4534.9821,N,12234.6792,W,071826.348,A,,*2B
$GPGSA,A,3,25,20,23,24,16,13,11,1,4,,,,1.763,0.931,1.497*33
$GPGST,071826.348,14.0,10.9,6.3,76.5,6.1,9.8,22.2*6A
$GPGSV,3,1,12,02,39,291,45,25,57,165,45,04,48,239,46,13,82,049,42*7C
$GPGSV,3,2,12,20,14,124,28,23,50,071,48,16,18,053,39,27,40,186,33*73
$GPGSV,3,3,12,10,10,299,36,08,13,195,32,07,01,001,20,06,03,352,*7F
$GPRMC,071826.348,A,4534.9821,N,12234.6792,W,30.264,120.241,140515,0.0,E,*68
$GPVTG,78.8,T,80.9,M,30.264,N,56.000,K,A*25
$GPGGA,071827.348,4534.9779,N,12234.6688,W,1,08,1.0000,0.0,M,0.0,M,,*43
$GPGLL,4534.9779,N,12234.6688,W,071827.348,A,,*22
$GPGSA,A,3,25,20,23,24,16,13,11,1,4,,,,1.763,0.931,1.497*33
$GPGST,071827.348,14.0,10.9,6.3,76.5,6.1,9.8,22.2*6B
$GPGSV,3,1,12,02,39,291,45,25,57,165,45,04,48,239,46,13,82,049,42*7C
$GPGSV,3,2,12,20,14,124,28,23,50,071,48,16,18,053,39,27,40,186,33*73
$GPGSV,3,3,12,10,10,299,36,08,13,195,32,07,01,001,20,06,03,352,*7F
$GPRMC,071827.348,A,4534.9779,N,12234.6688,W,30.264,120.241,140515,0.0,E,*61
$GPVTG,78.8,T,80.9,M,30.264,N,56.000,K,A*25
$GPGGA,071828.348,4534.9737,N,12234.6585,W,1,08,1.0000,0.0,M,0.0,M,,*48
$GPGLL,4534.9737,N,12234.6585,W,071828.348,A,,*29
$GPGSA,A,3,25,20,23,24,16,13,11,1,4,,,,1.763,0.931,1.497*33
$GPGST,071828.348,14.0,10.9,6.3,76.5,6.1,9.8,22.2*64
$GPGSV,3,1,12,02,39,291,45,25,57,165,45,04,48,239,46,13,82,049,42*7C
$GPGSV,3,2,12,20,14,124,28,23,50,071,48,16,18,053,39,27,40,186,33*73
$GPGSV,3,3,12,10,10,299,36,08,13,195,32,07,01,001,20,06,03,352,*7F
$GPRMC,071828.348,A,4534.9737,N,12234.6585,W,30.264,120.175,140515,0.0,E,*6E
$GPVTG,78.8,T,80.9,M,30.264,N,56.000,K,A*25
$GPGGA,071829.348,4534.9696,N,12234.6480,W,1,08,1.0000,0.0,M,0.0,M,,*47
$GPGLL,4534.9696,N,12234.6480,W,071829.348,A,,*26
$GPGSA,A,3,25,20,23,24,16,13,11,1,4,,,,1.763,0.931,1.497*33
$GPGST,071829.348,14.0,10.9,6.3,76.5,6.1,9.8,22.2*65
$GPGSV,3,1,12,02,39,291,45,25,57,165,45,04,48,239,46,13,82,049,42*7C
$GPGSV,3,2,12,20,14,124,28,23,50,071,48,16,18,053,39,27,40,186,33*73
$GPGSV,3,3,12,10,10,299,36,08,13,195,32,07,01,001,20,06,03,352,*7F
$GPRMC,071829.348,A,4534.9696,N,12234.6480,W,30.264,118.845,140515,0.0,E,*60
$GPVTG,78.8,T,80.9,M,30.264,N,56.000,K,A*25
$GPGGA,071830.348,4534.9656,N,12234.6375,W,1,08,1.0000,0.0,M,0.0,M,,*4E
$GPGLL,4534.9656,N,12234.6375,W,071830.348,A,,*2F
$GPGSA,A,3,25,20,23,24,16,13,11,1,4,,,,1.763,0.931,1.497*33
$GPGST,071830.348,14.0,10.9,6.3,76.5,6.1,9.8,22.2*6D
$GPGSV,3,1,12,02,39,291,45,25,57,165,45,04,48,239,46,13,82,049,42*7C
$GPGSV,3,2,12,20,14,124,28,23,50,071,48,16,18,053,39,27,40,186,33*73
$GPGSV,3,3,12,10,10,299,36,08,13,195,32,07,01,001,20,06,03,352,*7F
$GPRMC,071830.348,A,4534.9656,N,12234.6375,W,30.264,118.845,140515,0.0,E,*69
$GPVTG,78.8,T,80.9,M,30.264,N,56.000,K,A*25
$GPGGA,071831.348,4534.9615,N,12234.6270,W,1,08,1.0000,0.0,M,0.0,M,,*4C
$GPGLL,4534.9615,N,12234.6270,W,071831.348,A,,*2D
$GPGSA,A,3,25,20,23,24,16,13,11,1,4,,,,1.763,0.931,1.497*33
$GPGST,071831.348,14.0,10.9,6.3,76.5,6.1,9.8,22.2*6C
$GPGSV,3,1,12,02,39,291,45,25,57,165,45,04,48,239,46,13,82,049,42*7C
$GPGSV,3,2,12,20,14,124,28,23,50,071,48,16,18,053,39,27,40,186,33*73
$GPGSV,3,3,12,10,10,299,36,08,13,195,32,07,01,001,20,06,03,352,*7F
$GPRMC,071831.348,A,4534.9615,N,12234.6270,W,30.264,118.845,140515,0.0,E,*6B
$GPVTG,78.8,T,80.9,M,30.264,N,56.000,K,A*25
$GPGGA,071832.348,4534.9575,N,12234.6165,W,1,08,1.0000,0.0,M,0.0,M,,*4D
$GPGLL,4534.9575,N,12234.6165,W,071832.348,A,,*2C
$GPGSA,A,3,25,20,23,24,16,13,11,1,4,,,,1.763,0.931,1.497*33
$GPGST,071832.348,14.0,10.9,6.3,76.5,6.1,9.8,22.2*6F
$GPGSV,3,1,12,02,39,291,45,25,57,165,45,04,48,239,46,13,82,049,42*7C
$GPGSV,3,2,12,20,14,124,28,23,50,071,48,16,18,053,39,27,40,186,33*73
$GPGSV,3,3,12,10,10,299,36,08,13,195,32,07,01,001,20,06,03,352,*7F
$GPRMC,071832.348,A,4534.9575,N,12234.6165,W,30.264,118.845,140515,0.0,E,*6A
$GPVTG,78.8,T,80.9,M,30.264,N,56.000,K,A*25
$GPGGA,071833.348,4534.9534,N,12234.6059,W,1,08,1.0000,0.0,M,0.0,M,,*47
$GPGLL,4534.9534,N,12234.6059,W,071833.348,A,,*26
$GPGSA,A,3,25,20,23,24,16,13,11,1,4,,,,1.763,0.931,1.497*33
$GPGST,071833.348,14.0,10.9,6.3,76.5,6.1,9.8,22.2*6E
$GPGSV,3,1,12,02,39,291,45,25,57,165,45,04,48,239,46,13,82,049,42*7C
$GPGSV,3,2,12,20,14,124,28,23,50,071,48,16,18,053,39,27,40,186,33*73
$GPGSV,3,3,12,10,10,299,36,08,13,195,32,07,01,001,20,06,03,352,*7F
$GPRMC,071833.348,A,4534.9534,N,12234.6059,W,30.264,118.845,140515,0.0,E,*60
